Company Name,Website,Phone,Industry,Company Size,HQ,Type,Founded,Location,Latitude,Longitude,Specialities
L'Oréal,http://www.loreal.com,,Cosmetics,"10,001+ employees","Paris, France",Public Company,1909, , , ,"Beauty, Cosmetics, Personal Care, Consumer Products, Luxury, Pharmacy, research, innovation, digital, retail, marketing, operations, engineering, and tech"
Coty,http://www.Coty.com,,Cosmetics,"10,001+ employees","Amsterdam, North Holland",Public Company,1904, , , ,"Fragrances, Color Cosmetics, and Skin & Body Care"
Clarins,http://www.groupeclarins.com,,Cosmetics,"5,001-10,000 employees",,Privately Held,1954, ,-31.940785,115.973774,"Skin Care, Makeup, Body, Spa, Sun Products, Men's Skin Care, Self Tanner, Beauty, Luxury Cosmetics, Sustainable Development, and Prestige Cosmetics"
Aesop,https://www.aesop.com/r/careers,,Cosmetics,"1,001-5,000 employees","Collingwood, VIC",Privately Held,1987, ,-37.804999,144.949438,"Skin care, Hair care, and Body care"
AMOREPACIFIC,http://www.apgroup.com/int/en,,Cosmetics,"10,001+ employees","Seoul, Korea",Public Company,1945, , , ,"Beauty, Health, Cosmetics, Asia, K-Beauty, Global Brand, Green Tea, Perfume, Inner Beauty, Sustainability, R&D, Skin Care, Woman, and Environment"
Oriflame Cosmetics,https://corporate.oriflame.com/Career/Career,,Cosmetics,"5,001-10,000 employees",,Public Company,1967, ,-37.800587,144.899731,"Beauty Products, Direct Sales, Wellness Products, Skin care , Colour Cosmetics, Accessories, Lifestyle, Cosmetics Science, Research & Development, Hair Care, Personal Care, Fragrance, Entrepreneurship, Beauty, Wellness, Social Selling, Direct Selling, and Software"
SeneGence International,https://senegence.com,(949) 521-6161,Cosmetics,201-500 employees,"Foothill Ranch, CA",Privately Held,1999, ,-28.008835,153.404325, 
KORA Organics,http://koraorganics.com,,Cosmetics,11-50 employees,,Privately Held,2009, ,-23.87732,151.247376, 
frank body,http://www.frankbody.com,,Cosmetics,11-50 employees,"Cremorne, Victoria",Privately Held,2013, ,-34.35771,146.902119,"Naturally derived skincare, Body scrubs, Coffee, and Babes"
Jurlique,http://www.jurlique.com.au,,Cosmetics,"501-1,000 employees","Adelaide, South Australia",Privately Held,1985, ,-34.922786,138.601408,"Natural Skincare, Natural Expertise, Commitment to Environmental Sustainability, Innovation in Well Being, Biodynamic, Biodynamic Farming, Australian Beauty, and Australian Made Skin Care"
LUSH Fresh Handmade Cosmetics Australia and New Zealand,http://www.lush.com.au,,Cosmetics,"501-1,000 employees","Sydney, NSW",Privately Held,1995,"1A 74-76 Bileola Avenue, Villawood, Sydney, NSW 2163, AU",-33.884954,150.984679,"Fresh Handmade Cosmetics, Cruelty-free cosmetics, Fresh ingredients, Essential oils, Campaigning, Locally-made cosmetics, Ethical buying and supply chain management, and Charitable giving"
Maison 21G,https://maison21g.com/,,Cosmetics,11-50 employees,,Self-Employed,2018, ,-37.628075,145.075764,"perfume, scent designer, haute perfumerie, cleanbeauty, sustainibilty, bespoke, natural ingredients, womenfragrance, menfragrance, corporatefragrance, and bespokescent"
Lucas Meyer Cosmetics,http://bit.ly/2o7qRMI,,Cosmetics,51-200 employees,,Privately Held,1999, ,-37.54572,143.7758,"Cosmetic active ingredients, Australian native plant extracts, Functionnal ingredients, Vegetable oils, Delivery systems, Essential oils, Exfoliants, Formulation support, Biomimetic peptides, and Phospholipids"
Napoleon Perdis Cosmetics,http://napoleonperdis.com,1300 625 387,Cosmetics,51-200 employees,"Rosebery, New South Wales",Privately Held,1995,"85-113 Dunning Ave, B3, Rosebery, New South Wales 2018, AU",-33.917685,151.205569,"Red carpet trends to reality, Distribution, and Marketing"
MARQ Labs,https://marqlabs.com/,1(800) 914-3880,Cosmetics,51-200 employees,,Privately Held,2009, ,-32.005732,115.895705,"Beauty Brands, Creative Agency, Research & Development, Digital Marketing, Contract Manufacuring, Product Packaging, R&D Formulations, Branding, Distribution, Logistics, Skincare, Sunless Tanning, Body Care, Pet Care, and Personal Care"
VANITY GROUP,http://www.vanitygroup.com,,Cosmetics,51-200 employees,"Marrickville, NSW",Privately Held,2011,"4-6 Meeks Road, Marrickville, NSW 2204, AU",-33.910763,151.162884,"Hotel Amenities, Beauty Retail, Skin care, Hair care, Body care, Luxury, Supplier, Fragrance, Luxury amenities, R&D, Clean formulations, Bath and body, Innovation, EcoPure, Corporate responsibility, Paraben free, and Eco responsibility"
Go-To Skincare Pty Ltd,http://www.gotoskincare.com,,Cosmetics,11-50 employees,"Surry Hills, New South Wales",Privately Held,2013,"91 Campbell St, Level 2, Surry Hills, New South Wales 2010, AU",-33.880521,151.210456,"Skin care, Cosmetics, and Lolcats"
L'Occitane Australia,https://au.loccitane.com/,,Cosmetics,201-500 employees,"Sydney, NSW",Public Company,1976,"Level 8, 157 Walker Street, North Sydney, Sydney, NSW 2060, AU",-33.837655,151.209456,"Retail, Luxury, Cosmetics, and Beauty"
Total Beauty Network,http://www.tbn.com.au,,Cosmetics,51-200 employees,,Privately Held,2004,"813 Springvale Road, Mulgrave,  3170, AU",-37.924627,145.157031,"Sales and Marketing, New Product Development, Distribution, Cosmetics, and Beauty"
Gorgeous Cosmetics,http://www.gorgeouscosmetics.com,,Cosmetics,51-200 employees,"Inglewood, CA",Public Company,1999, ,-33.419103,149.579422,Cosmetics and Beauty
Nutrimetics,http://www.nutrimetics.com.au,,Cosmetics,51-200 employees,,Public Company,,AU, , , 
Intraceuticals,http://www.intraceuticals.com,,Cosmetics,51-200 employees,"Hawthorn East, VIC",Privately Held,2002, , , ,"Oxygen treatments and Recommended by Skincare Professionals, Celebrities, Make-up Artists, Photographers and stylists all over the world"
bellabox,http://www.bellabox.com.au,,Cosmetics,11-50 employees,"Richmond, Victoria",Privately Held,2011,"25 Butler St, Richmond, Victoria 3121, AU",-37.810444,144.994358,"E-Commerce, Subscription, Beauty Products, Social Media, Pop Culture, Beauty, Makeup, Skincare, Haircare, Wellness, Grooming, Self care, and Gifting"
Hismile,http://www.hismileteeth.com,,Cosmetics,51-200 employees,"Gold Coast, QLD",Privately Held,2014,"Shop 1, 2563 Gold Coast Highway, Gold Coast, QLD 4218, AU",-28.017366,153.42725, 
RATIONALE,https://www.rationale.com,1800 350 821,Cosmetics,51-200 employees,"Richmond, VIC",Privately Held,1992,"44 Cubitt Street, Richmond, VIC 3121, AU",-37.819635,145.003879,"Skin Treatments, Luxury Skincare, Skin Consultation, Australian Made, Research, Innovation, Dermatology, Melbourne Made, and Cosmeceutical"
Beauty Warehouse,http://www.beautywarehouse.com.au,,Cosmetics,201-500 employees,"Mortdale, New South Wales",Public Company,1992,"82 - 84 Captain Cook Drive, Caringbah, New South Wales 2223, AU",-34.03266,151.122686, 
ModelCo Pty Ltd,http://www.modelcocosmetics.com,,Cosmetics,11-50 employees,"Sydney, NSW",Public Company,2002,"809-821 Botany Rd, Sydney, NSW 2018, AU",-33.868633,151.209421,"Cosmetics, Retail, Innovation, and Beauty solutions"
Skin Virtue,http://www.skinvirtue.com,61280523500,Cosmetics,2-10 employees,"Sydney, New South Wales",Privately Held,2011,"2/3 Nursery Road, Campbell Town, Sydney, New South Wales 2560, AU",-33.868633,151.209421,"Professional Skin Care, Skin Care, Skin Care Products, Spa, Dermatology, Day Spa, Medi Spa, Skin Care wholesale, Skin Care Manufacturer, Salon, clean beauty, skin, dematology, cleanbeauty, antiaging, wrinkles, skinspots, acne, skin, beauty, clinic, aesthetician, and Cosmeceutical"
Naturally Safe Cosmetics Australia Pty Ltd,https://naturallysafe.com.au/,1300881737,Cosmetics,2-10 employees,"Gladesville, NSW",Privately Held,2007,"PO Box 660, Gladesville, NSW 1675, AU",-33,146,"organic skincare, natural cosmetics, natural bath & body care, and organic hair care"
Cosmax Prestige Brands Australia,http://www.cosmax.com.au,,Cosmetics,51-200 employees,,Privately Held,,"Unit 13/ 2 - 12 Beauchamp Road, Banksmeadow,  2019, AU",-33.960598,151.219577, 
Nude by Nature,http://www.nudebynature.com,,Cosmetics,51-200 employees,"Sydney, NSW",Privately Held,2008, ,-37.837463,144.943544,"beauty, cosmetics, makeup , cruelty-free, and natural ingredients"
Alpha-H,http://alpha-h.com/,1800 659 777,Cosmetics,51-200 employees,"Helensvale, Queensland",Privately Held,1995,"Unit 1-2, 18 Millennieum Circuit, Helensvale, Queensland 4212, AU",-27.931837,153.339956,"Skincare, Australian Owned, Operated and Manufactured, Anti-Ageing, Beauty Industry, Cutting Edge Technology, At the forefront of the Australian Cosmetics Industry, Cosmetic Manufacturing, Innovative Formulations, Skin Resurfacing, Australian Skincare, Australian Brand, and Beauty"
Heat Group,http://www.heatgroup.com.au,,Cosmetics,51-200 employees,"Scoresby, VIC",Privately Held,2000,"35 Centre Road, Scoresby, VIC 3179, AU",-37.902379,145.234908,"Beauty, Cosmetics, Personal Care, and Consumer Products"
WonderSmile,http://www.wondersmile.com,,Cosmetics,51-200 employees,"Surry Hills, New South Wales",Privately Held,,"35 Buckingham St, Surry Hills, New South Wales 2010, AU",-33.886989,151.207303, 
Trimex Pty Ltd,http://www.trimex.com.au,,Cosmetics,51-200 employees,,Privately Held,1973,AU, , , 
Couleur Caramel Officiel,https://www.couleur-caramel.com,04 75 71 32 67,Cosmetics,51-200 employees,,Privately Held,2003, , , ,"makeup bio, maquillage bio, maquillage naturel, makeup naturel, organic makeup, and natural makeup"
The Australian Glow,http://www.theaustralianglow.com,,Cosmetics,11-50 employees,"Port Melbourne, Victoria",Privately Held,2017,"48 Bertie St, Port Melbourne, Victoria 3207, AU", , , 
True Solutions (Australia),http://www.true-solutions.com.au,1800 808 993,Cosmetics,11-50 employees,"Rosebery, NSW",Public Company,1995,"CoHouse Studios, Level 1, 36 Morley Avenue, Rosebery, NSW 2018, AU",-33.926459,151.209055,"Beauty, Anti-Ageing, Import, Cosmetics, Light Therapy, Skincare, Aesthetics Training, and Cosmeceuticals"
Liberty Belle Rx,http://www.libertybellerx.com,,Cosmetics,11-50 employees,"Toorak, VIC",Privately Held,2018,"Toorak, VIC 3142, AU",-37.841617,145.017609, 
Dermocosmètica,http://www.dermocosmetica.com.au,,Cosmetics,2-10 employees,"Melbourne, Victoria",Privately Held,2011,"Unit 8, 14-16 Lens Street, Coburg North, Melbourne, Victoria 3058, AU",-37.731383,144.951574,"Cosmeceuticals, Dermocosmetics, Therapeutic Skincare, and SKINCARE"
PharmaScope - Cosmetic Manufacturing Chemists,https://pharmascope.com.au/,894517766,Cosmetics,11-50 employees,"Welshpool, Western Australia",Privately Held,2004,"Welshpool Rd, Welshpool, Western Australia 6106, AU",-31.992601,115.949313,"Toothpaste, Lipbalms, Skin Care, Hair Care, Cosmeceutical, Veterinary, Self Tanning, Deodorants, Hot Pour, Powders, Tablets, Shampoo, Natural Formulations, and Clean Beauty"
Face Halo,http://www.facehalo.com,,Cosmetics,11-50 employees,"Applecross, Western Australia",Privately Held,2017, ,-30.513091,151.66756,Makeup Removal
Avenir Ingredients,https://www.aveniringredients.com.au/,02 9166 2989,Cosmetics,11-50 employees,"North Strathfield, NSW",Privately Held,2013,"22 George St, Suite 7, Level 1, North Strathfield, NSW 2137, AU",-33.862692,151.087357,"Australian Botanicals, New Zealand Botanicals, Natural Preservatives, Cutting-Age Skincare actives, Sustainable Haircare actives, Ceramides, Peptides, Growth Factors, COSMOS ingredients, Organic Ingredients, plant-derived emollients, Natural Specialty Waxes, Natural Exfoliators, Delivery Systems, Pigments, Natural Fragrances, RSPO certified, and Emulsifiers"
Alya Skin Australia,https://www.alyaskin.com/,,Cosmetics,11-50 employees,"Melbourne, Victoria",Privately Held,2019,"Melbourne, Victoria 3205, AU",-37.833409,144.956973, 
Institute of Personal Care Science,http://www.personalcarescience.com.au,,Cosmetics,2-10 employees,"Coolum Beach, QLD",Privately Held,2007,"Unit 14/2 Focal Avenue, Coolum Beach, QLD 4573, AU",-26.527436,153.08251,"Registered Training Organisation; Contract formulators and Regulatory Affairs consultants for cosmetics, personal care, sunscreens, therapeutic goods, and complementary medicines and wholistic foods."
evo,http://www.evohair.com,,Cosmetics,51-200 employees,"Adelaide SA , SA",Privately Held,,"5/12 Gilles St, Adelaide SA , SA 5000, AU",-34.780893,138.604599, 
Synergie Skin,http://www.synergieskin.com/,1300689619,Cosmetics,11-50 employees,"Melbourne, Victoria",Privately Held,2005,"125 Highbury Road, 22, Melbourne, Victoria 3125, AU",-37.825071,144.978682,"cosmeceuticals, mineral makeup, cosmetics, beauty, and skincare"
Fuchsia Brands Pty Ltd,http://www.fuchsia-brands.com,,Cosmetics,51-200 employees,"Melbourne, Victoria",Privately Held,2019,"Melbourne, Victoria 3000, AU",-37.813046,144.962398, 
Happy Skin Co,http://happyskinco.com,,Cosmetics,11-50 employees,"Sydney, NSW",Privately Held,2017,"Bondi Beach, Sydney, NSW 2026, AU",-33.868633,151.209421, 
Beautopia Hair & Beauty ,http://www.beautopia.com.au,02 9882 3100,Cosmetics,51-200 employees,"Sydney, NSW",Privately Held,2005,"Unit-6, 27 Mars Rd, Sydney, NSW 2066, AU",-33.810569,151.149864,"beauty products, hair products, nails supplies, beauty wholesaler, australian owned, salon supplies, hairdressing products, salon spa products, hair and beauty, whole saler, wholesale, beauty, and hair"
Enervest, ,,Cosmetics,0-1 employees,"Camberwell, Victoria",Partnership,2009, , , ,"PV solar, Solar installation, Battery installation including Tesla, and Renewables"
Damn Good Beauty,https://damngoodbeauty.com.au,,Cosmetics,11-50 employees,"Marrickville, New South Wales",Privately Held,,"4-6 Meeks Rd, Marrickville, New South Wales 2204, AU",-33.910763,151.162884,Beauty and Brands
ASAP Skin Products,http://www.asapskinproducts.com,,Cosmetics,11-50 employees,,Privately Held,,AU, , , 
Asquan Group ,http://www.asquangroup.com,+852 3650 2800,Cosmetics,11-50 employees,"San Po Kong  - Kowloon, Hong Kong",Privately Held,2008, ,-38.148594,144.36658,"Primary Packaging for Cosmetics & Skincare, Turn-key Cosmetics & Skincare, Make-Up Brushes & Beauty Tools, and Cosmetic Bags & Pouches"
SENSORI+,http://www.sensoriplus.com,,Cosmetics,51-200 employees,"Melbourne, Victoria",Privately Held,2018, , , ,"Cosmetics, Fragrance, Wellbeing, Skincare, Sustainability, Clean Beauty, Detoxifying Air Mist, Air Quality, Vegan, Australian, Serum In Oil, Luxury Beauty, Clean Air, Detoxifying Candle, Global, Natural, Organic, Innovative, and Consumer Centricity"
Sodashi Skin Care,http://www.sodashi.com,,Cosmetics,11-50 employees,"North Fremantle, WA",Privately Held,1999,"126 Stirling Highway, North Fremantle, WA 6159, AU",-32.024386,115.753359,"Natural Skincare, Organic, Spa, Beauty, Cruelty free, and Skincare"
My Little Lab,http://www.mylittlelab.com.au,,Cosmetics,0-1 employees,"Bondi Beach, NSW",Self-Employed,,"Bondi Beach, NSW 2026, AU",-33.889485,151.272308, 
CareLine,https://www.careline.com,,Cosmetics,51-200 employees,"Northmead, New South Wales",Public Company,1982, , , ,"non-surgical cosmetic skincare treatment, depilatories, CosmoPharmaceuticals, nose strips, Organic cosmetics, skincare, cosmetics manufacturing, dermaceuticals, natural cosmetics, and wax strips"
MineTan Body Skin,https://minetanbodyskin.com/,,Cosmetics, ,,,, ,-36.770934,144.26322, 
Aware Environmental Ltd,http://www.awaregroup.com.au,+61 3 8789 2200,Cosmetics,201-500 employees,"Dandenong South, Victoria",Privately Held,1994,"282 - 300 Hammond Rd, Dandenong South, Victoria 3175, AU",-38.023281,145.203544,"Certified Organic, Eco-Responsible Products, Therapeutic Goods, and Cosmeceutical"
AMN Distribution ,https://www.linkedin.com/company/amn-distribution/,,Cosmetics,51-200 employees,,Sole Proprietorship,, ,-37.825213,144.733975,"Product Listing, Wholesale, Distribution, Health and Beauty Product Distribution, Merchandising, Visual Merchandising, Marketing, and Planogram Design"
BM cosmetics for men,http://www.bmcosmetics.com.au/,,Cosmetics,11-50 employees,,Sole Proprietorship,2015, , , ,"cosmetics for men, skincare for men, mancealer, and bb cream"
Inika,http://www.inikacosmetics.com,,Cosmetics,11-50 employees,,Privately Held,, , , , 
Sasy n Savy Pty Ltd - Manufacturer of Organic Vegan Skincare & Wellbeing Products - sasynsavy.com,http://www.sasynsavy.com,+61 2 9522 9967,Cosmetics,51-200 employees,"Miranda, New South Wales",Privately Held,2000,"30/205 Port Hacking Road, Miranda, New South Wales 2228, AU",-34.025592,151.105435,"Manufacture Skincare and Wellbeing Products, OEM / Private Label Manufacturer, We service Travel Retail market, Product Development Consulting, Sell Hotel & Resort Amenities, We supply Spas, Beauty Salons, Speciality retailers, and Natural Skincare Manufacturer"
Kester Black,http://www.kesterblack.com,,Cosmetics,11-50 employees,,Privately Held,2014, ,-32.252552,148.578901, 
The Institute Of Makeup,http://www.TheInstituteOfMakeup.com.au,,Cosmetics,2-10 employees,"Varsity Lakes, Queensland",Educational Institution,,"194 Varsity Pde, Varsity Lakes, Queensland 4227, AU",-28.079249,153.410869,"Makeup Artistry, Makeup Lessons, Makeup School, Cosmetology, Makeup Artist, Bridal Makeup, Beauty Makeup, and Marketing"
Professional Beauty Solutions (PBS),http://www.probeautysolutions.com.au,1800 625 387,Cosmetics,11-50 employees,"Kurnell, NSW",Privately Held,,"Unit 9, 18-28 Sir Joseph Banks Drive, Kurnell, NSW 2231, AU",-34.019826,151.206715,"Skincare, Tanning, Beauty, Cosmetics, Marketing, Laser treatment, IPL treatment, LED treatment, Salon, spas & clinics, Salon beauty supplies, Mineral makeup, Body sugaring, Salon beauty brands, Cosmeceutical skincare, Internal skincare, Salon beauty supplier, Spray tan, Beauty brand distributor, Beauty supplier, and Salon education & training"
Ere Perez Natural Cosmetics,http://ereperez.com,,Cosmetics,11-50 employees,"Tamarama, New South Wales",Privately Held,2004,"274 Bondi Rd, Tamarama, New South Wales 2026, AU",-33.898872,151.270138,"cosmetics, natural cosmetics, natural skincare, skincare, online cosmetics, and natural beauty"
Results Laser Clinic,http://resultslaserclinic.com.au,02 7809 8898,Cosmetics,201-500 employees,"Parramatta, NSW",Privately Held,2004,"Unit 8, 142 James Ruse Drive, Parramatta, NSW 2150, AU",-33.817287,151.021449,"Laser Hair Removal, Photo Rejuvenation, Chemical Peels, Acne Treatments, Clinical Skin Needling, Anti Wrinkle Treatments, Dermal Fillers, Non Surgical Lifts, Fat & Cellulite Reduction, Microdermabrasion, Oxygen Therapy, Stretch Mark Removal, Fractional RF Laser, Pigmentation Laser Removal, cosmetic injectables, Skin care, Body Contouring, IPL, Fractional RF, and LED Light Therapy"
Mr. Smith,http://mr-smith.com.au,,Cosmetics,11-50 employees,"Collingwood, Victoria",Privately Held,2014,"Rokeby St, Collingwood, Victoria 3066, AU",-37.802002,144.988136,Haircare
Skinstitut,http://www.skinstitut.com,,Cosmetics,11-50 employees,"St Leonards, NSW",Privately Held,2008,"6-8 Herbert Street, 32, St Leonards, NSW 2065, AU",-33.823701,151.193325,"Cosmedics, Cosmedical, Beauty, Skincare, and Health & Wellness"
Adorn Cosmetics,http://www.adorncosmetics.com.au,398084422,Cosmetics,11-50 employees,"Mineral, organic, toxic free cosmetics and Australian made and owned",Privately Held,2008,"Clayton ,  3168, AU",-37.916715,145.131804,"Mineral, organic, toxic free cosmetics and Australian made and owned"
IGEA Group,http://www.igeagroup.com,+61 2 9268 7555,Cosmetics,51-200 employees,"Sydney, NSW",Privately Held,,"Level 6, 27 Macquarie Place, Sydney, NSW 2000, AU",-33.863265,151.209519,"Beauty, cometics, skincare, beauty devices, Health Supplements, and Medical Devices"
Delorenzo Haircare,http://www.delorenzo.com.,,Cosmetics,51-200 employees,"Silverwater, NSW",Privately Held,,"103 carnarvon street, Silverwater, NSW 2128, AU",-33.834059,151.036172, 
The Quick Flick,https://thequickflick.com.au/,,Cosmetics,11-50 employees,"Perth, Western Australia",Privately Held,2017,"Subiaco Rd, Perth, Western Australia 6008, AU",-31.960773,115.834088,"Makeup, Beauty, Beauty Products, Eyeliner, Winged Eyeliner, and Cosmetics"
New Directions Australia,http://www.newdirections.com.au,+612 8577 5999,Cosmetics,51-200 employees,,Privately Held,1988,"2204, AU",-33.911259,151.155552, 
SKINLAB®,http://skinlab.com.au,,Cosmetics,11-50 employees,"Sydney, NSW",Partnership,1991,"Bella Vista, Sydney, NSW 2153, AU",-33.868633,151.209421,Dermatology and Skincare Research
muk Haircare Pty Ltd,http://www.mukhair.com,1300768264,Cosmetics,51-200 employees,"Keilor Park, Victoria",Privately Held,2006,"39 Translink Dr, Keilor Park, Victoria 3042, AU",-37.722615,144.847314, 
O&M Haircare,https://www.originalmineral.com.au,296955000,Cosmetics,11-50 employees,"Darlinghurst, New South Wales",Privately Held,2008, , , , 
The Jojoba Company Australia,https://www.thejojobacompany.com.au,02 9651 3030,Cosmetics,11-50 employees,"Castle Hill, NSW",Privately Held,2009,"40 Carrington Road, Unit 5, Castle Hill, NSW 2154, AU",-33.72993,150.98517,"100% Natural Australian Jojoba, Anti-Ageing, Australian Made & Owned, Not Tested On Animals, Face & Body, Natural Skincare, Clinically Proven Results, Jojoba From Our Own Australian Farm, Products For All Skin Types, and vegan"
InnovaDerma PLC,http://www.innovaderma.com,,Cosmetics,11-50 employees,,Public Company,2013, , , , 
b.tan,https://btan.rocks/,,Cosmetics, ,,,, , , , 
Natio,http://www.natio.com.au,,Cosmetics,51-200 employees,"Heidelberg West, Victoria",Privately Held,1993,"110 Dougharty Rd, Heidelberg West, Victoria 3081, AU",-37.73434,145.049893, 
BONDI WASH,http://bondiwash.com.au,,Cosmetics,11-50 employees,"Paddington, NSW",Privately Held,2013,"396 Oxford St, Paddington, NSW 2021, AU",-33.886926,151.230531, 
Nic & Co. Organic,https://www.niccoorganic.com,,Cosmetics,0-1 employees,"TOWNSVILLE, QLD",Sole Proprietorship,2019,"PO BOX 217, HYDE PARK, TOWNSVILLE, QLD 4812, AU",-19.26639,146.80569,"Organic, Self Tanning, Natural , Vegan, Ethical, Australian Owned, Australian Made, and Cruelty Free"
Bunjie,http://www.bunjie.com,,Cosmetics,2-10 employees,,Privately Held,,"Sydney,   AU",-33.868633,151.209421, 
Concept Labs Australia,http://www.conceptlabs.com.au,07 5437 9303,Cosmetics,11-50 employees,"Warana, Queensland",Privately Held,1998,"20 Premier Cirt, Warana, Queensland 4575, AU",-26.72677,153.119397,"Sun Protection, Cosmetics, Skin Care, Hand Sanitiser, Aloe Vera soothing Gel, GMP Certified, SEDEX Member, Product Formulation,  Manufacturing, Regulatory Affairs and Compliance, Full Private Label Service, and Quality Assurance and Quality Control"
Permanent Make-up,http://www.permanentmake-up.info,,Cosmetics,2-10 employees,,Privately Held,1999,"2257, AU",-33.516847,151.343166,"acne, age, AHA, aloe, Alopecia (loss of hair), areola reconstruction, Beauty, Beauty Products, and Centr - Beauty Salon - Beauty Services - Beauty Therapy - Beauty Treatment - Cosmetics - Make Up - Makeup - Make-up - Tattoo - Weddings"
Clinique Australia,http://www.clinique.com.au,,Cosmetics,"501-1,000 employees",,Public Company,,"Sydney,   AU",-33.868633,151.209421, 
My Perfect Cosmetics Company,http://www.myperfectcosmeticscompany.co.uk,,Cosmetics,51-200 employees,"Port Melbourne, Victoria",Privately Held,2016, , , , 
PATRICKS,http://www.patricks.com.au,,Cosmetics,11-50 employees,"Sydney, NSW",Privately Held,2007,"PO Box 266, Bondi, Sydney, NSW 2026, AU",-33.868633,151.209421, 
Formulae 8 Pty Ltd,http://www.formulae8.org,61295676888,Cosmetics,2-10 employees,"Rockdale, New South Wales",Privately Held,2007,"39 George St, Unit 3, Rockdale, New South Wales 2216, AU",-33.951829,151.140388,"1. Formulation & Product Design, 2. Concept Development, 3. Packaging Development, 4. New Product Development, 5. Consumer & Sensory Science, 6. Technology Scouting & Platform Development, 7. Claims Development & Substantiation, and 8. Intellectual Property Strategy"
LANO lips + face + allover. ,http://www.lanolips.com,,Cosmetics,11-50 employees,"Sydney, New South Wales",Privately Held,2011,"Sydney, New South Wales 2000, AU",-33.868125,151.207973,"Natural skincare, lanolin, cosmetics, and manufacturing"
Perfumery,http://www.perfumery.com.au,,Cosmetics,11-50 employees,"Warriewood, New South Wales",Privately Held,1994,"Warriewood, New South Wales 2102, AU",-33.688696,151.294127,"Customer Service, Product Sourcing, Quoting, and Range of Fragrances available"
Origani ,https://www.origani.com.au,390216181,Cosmetics,51-200 employees,"Melbourne, Victoria",Privately Held,2005,"2/118-122 Malcolm Road, Melbourne, Victoria 3195, AU",-37.825071,144.978682,"Cosmetics, Skincare, Organic skincare, Makeup, Mineral Makeup, Beauty, facialservice, treatmentservice, and makeupservice"
ishga Skincare,http://www.ishga.com,01851 703278,Cosmetics,11-50 employees,,Privately Held,2013, ,-37.775874,145.01844, 
Peppy Co,http://www.peppyco.com,,Cosmetics,2-10 employees,"Gold Coast, QLD",Privately Held,2017,"Gold Coast, QLD 4215, AU",-28.017366,153.42725, 
derma aesthetics,http://www.dermaviduals.com.au,,Cosmetics,51-200 employees,"Sydney, NSW",Privately Held,, ,-27.389523,153.031118,"Education, Skin Correction, Skin Diagnostic Equipment, Clinic Growth and Development, Skin Education, and Business Development"
The Australian Society of Cosmetic Chemists,https://ascc.com.au/,,Cosmetics,2-10 employees,,Nonprofit,1961, , , , 
Motives by Loren Rindinger,http://www.endlessmall.com.au,,Cosmetics,0-1 employees,,Privately Held,,"6018, AU",-31.887065,115.786403, 
Grown Alchemist,http://www.grownalchemist.com,61390238851,Cosmetics,11-50 employees,,Privately Held,2004,"Melbourne,   AU",-37.825071,144.978682, 
Caronlab Australia,http://www.caronlab.com.au,,Cosmetics,51-200 employees,"North Geelong, Victoria",Privately Held,1979,"148 - 150 Victoria Street, North Geelong, Victoria 3215, AU",-38.122393,144.345096,"Manufacture of Hair Removal Waxes & Associated Products, Specialised Training, Contract Manufacturing, Import & Export, and Manufacture of Massage Oils"
Starshine Marketing Pty Ltd.,http://www.starshinemarketing.com,,Cosmetics,51-200 employees,"Braeside, Victoria",Sole Proprietorship,,"2/118 - 122 Malcolm Road, Braeside, Victoria 3195, AU",-38.012344,145.117344,"Skincare, Cosmetics, Beauty, and Makeup"
Dermalogica Australia,http://www.dermalogica.com.au,02 8437 9600,Cosmetics,51-200 employees,"Crows Nest, New South Wales",Privately Held,1995,"111 Chandos St, Crows Nest, New South Wales 2065, AU",-33.822328,151.200324, 
Natural Beauty Care,http://www.naturalbeautycare.com.au,,Cosmetics,51-200 employees,"Highett, Victoria",Privately Held,1994,"8 Teton Court, Highett, Victoria 3192, AU",-37.949272,145.053398,Bath & Beauty Products and Contract Manufacturing
BLC Cosmetics,http://www.blccosmetics.com,+61 2 8667 4695,Cosmetics,11-50 employees,"Macquarie Park, NSW",Public Company,1974,"L2, 68-72 Waterloo Road, Macquarie Park, NSW 2113, AU",-33.781232,151.121954, 
sskin,http://www.sskinaus.com,756609691,Cosmetics,2-10 employees,,Partnership,2020,"Gold Coast,   AU",-28.017366,153.42725, 
Skin Juice Nutraceuticals - Natural and Organic Professional Skin Care,http://www.skinjuice.com.au,,Cosmetics,2-10 employees,"Beresfield, New South Wales",Privately Held,1996,"4 Elwell Cl, Beresfield, Beresfield, New South Wales 2232, AU",-32.800744,151.631648,"Professional Skin Care and treatments, Facials and Body treatments, Natural and Organic Skin care, Face and Body care, Healthy, active products, Australian Manufacture, Mummys Tummy stretch mark prevention cream, and Quality customer service"
Hey Bud Skincare,https://heybudskincare.com/,,Cosmetics,2-10 employees,"Melbourne, Victoria",Privately Held,2019,"Melbourne, Victoria 3000, AU",-37.813046,144.962398, 
Silk Oil of Morocco Official,http://www.silkoilofmorocco.com,,Cosmetics,11-50 employees,"Brisbane, Clontarf",Public Company,2002,"Unit 13, 9 -11 Redcliffe Gardens Drive, Brisbane, Clontarf 4019, AU",-27.96667,151.21667,"Professional Hair Care infused with Cold Pressed Certified Organic Argan Oil, Professional Skin Care infused with Cold Pressed Certified Organic Argan Oil, Professional Cosmetics infused with Cold Pressed Certified Organic Argan Oil, and Direct Selling"
Affinage Professional,http://www.affinage.com.au/,+61 7 3823 4566,Cosmetics,51-200 employees,"Capalaba, Queensland",Public Company,1988,"14, India Street, Capalaba, Queensland 4157, AU",-27.530851,153.203778,"Professional Only Brand, Professional Salon Products, Hair Care, Australian Owned, PETA Members, Education, ANZ wide dsitribution, and Asia wide distribution"
Ozdare,http://ozdare.com/,,Cosmetics,51-200 employees,"Sunshine West, VIC",Privately Held,2000,"7 Endeavour Way, Sunshine West, VIC 3020, AU",-37.815582,144.820622, 
SISTERWOULD,http://www.sisterwould.com,,Cosmetics,2-10 employees,"Melbourne, Victoria",Privately Held,2020, , , ,"skincare, haircare, sulphatefree, hair care, skin care, clean, cleanbeauty, toxicfree, sustainable, accessible, inclusive, shampoo, conditioner, beauty, and skincare"
Le Reve,http://www.lereve.com.au,,Cosmetics,11-50 employees,"Baulkham Hills, NSW",Privately Held,,"2 Columbia Court, Baulkham Hills, NSW 2153, AU",-33.731588,150.969373, 
Santanol – Pure Ethical Sandalwood,https://www.santanol.com,+61 (0)8 9242 1594,Cosmetics,11-50 employees,"Perth, Western Australia",Public Company,1999, ,-33.604578,150.822895,"Producer of Santalum album oil and wood products, Sustainable management practices, Sustainability, Essential oils, Fragrance market, Aromatherapy industry, Ethical products, Cosmetics, Sandalwood, Santalum album, and Natural"
Sydney Essential Oil Co,http://www.seoc.com.au,,Cosmetics,11-50 employees,"St Peters, NSW",Privately Held,,"St Peters, NSW 2044, AU",-33.920348,151.169385, 
Iridis Cosmetics - 'Makeup Made Simple',http://www.iridis.com.au,,Cosmetics,2-10 employees,"Newport West, Victoria",Privately Held,2009,"Po Box 3100, Newport West, Victoria 3015, AU",-37.837628,144.882222,"Makeup Services (Weddings, Special Events), Teaching you to feel amazing about yourself, Makeup Parties where we demystify makeup for you!, Corporate and Personal Photo Shoots, Teaching you all the tricks and tips, and Tailored one-on-one makeup lessons"
Le Beauty,http://www.lebeauty.com.au,,Cosmetics,11-50 employees,"Richmond, VIC",Sole Proprietorship,2004,"Lower Ground, 3-7 Shelley Street, Richmond, VIC  AU",-37.810322,144.993998,"Tanning, Nails, Haircare, Waxing, Beauty Wholesale, Skincare, Makeup, Eyelash, Eyebrow, Training, Beauty Training, Salon Supplies, Official Stockist, Beauty Supplies, Nail Supplies, Hair Supplies, Tanning Supplies, and Waxing Supplies"
New Laboratories Cosmetic Manufacturing,http://newlabs.com.au/,,Cosmetics,11-50 employees,"Moorabbin, Victoria",Privately Held,2017,"102 Keys Rd, Moorabbin, Victoria 3189, AU",-37.941542,145.057782,"Organic formulations, Colour Cosmetics, Hair Care, Baby Care, Filling, Formulations, Skin Care, Regulatory, and Full Service"
Rejuvenation Clinics of Australia,https://www.rejuvaustralia.com.au/,,Cosmetics,11-50 employees,"Sydney, New South Wales",Privately Held,2000,"254 George St, Sydney, New South Wales 2000, AU",-33.864389,151.207694,"Cosmetic Medicine, Body Sculpting, Liposuction, Injectable Fillers, Facial Rejuvenation, Dermal Fillers, Facials, Botox Cosmetic, Body Contouring, and Cosmeceuticals"
My Glow 2.,http://www.myglow2.com.au,,Cosmetics,2-10 employees,,Privately Held,2019,"Melbourne ,   AU",-37.825071,144.978682, 
The Startup Collective,http://www.thestartupcollective.com.au,,Cosmetics,2-10 employees,,Privately Held,,"Sydney,   AU",-33.868633,151.209421, 
Soap Solutions,http://www.soapsolutions.com.au,,Cosmetics,11-50 employees,"Sydney, New South Wales",Privately Held,1993,"Unit 3, The Metro 2 Apollo Street Warriewood, Sydney, New South Wales 2102, AU",-33.67909,151.289267,"Contract Soap Manufacturing, Customer Service, Industry Leaders in Manufacturing Technologies, and Specialists in Raw Materials"
Agence de Parfum,http://agencedeparfum.com.au,,Cosmetics,11-50 employees,"Redfern, New South Wales",Privately Held,2008,"55 Renwick St, Redfern, New South Wales 2016, AU",-33.890829,151.201936, 
Eyelash Extension Specialists,http://sydneyeyelashextensions.com,,Cosmetics, ,"Newtown, New South Wales",,, ,-37.831069,140.791858, 
APPELLES Apothecary & Lab,http://appelles.com/,,Cosmetics, ,,,,"4-6 Meeks Road, Marrickville, New South Wales 2204, AU",-33.910763,151.162884, 
Colorpop Cosmetics, ,,Cosmetics, ,"Maroochydore, Queensland",,, ,-37.800587,144.899731, 
James Cosmetics,http://www.jamescosmetics.com,,Cosmetics,2-10 employees,"Bundall, Queensland",Privately Held,,"18 Ashmore Rd, Bundall, Queensland 4217, AU",-28.011374,153.41018, 
Younique Cosmetics, ,,Cosmetics, ,,,, ,-37.800587,144.899731, 
LS Global Pty Ltd,http://www.origani.com.au,,Cosmetics,11-50 employees,"Braeside, Victoria",Privately Held,,"118 Malcolm Rd, Braeside, Victoria 3195, AU",-38.012344,145.117344,"Cosmetics, Skincare, Makeup, Beauty, Vegan, Cruelty-free, Organic Skincare, Naturally-derived Skincare, Certified-organic, and Luxury Cosmetics"
Aesthetic Life,http://www.aestheticlife.com.au,,Cosmetics,2-10 employees,,Public Company,2013,"Sydney,   AU",-33.868633,151.209421, 
SALT BY HENDRIX,http://www.saltbyhendrix.com,,Cosmetics,11-50 employees,"Silverwater, NSW",Privately Held,,"Silverwater, NSW  AU",-33.103061,151.557977, 
G&M Cosmetics ,https://gandmcosmetics.com.au/,,Cosmetics,11-50 employees,"Taren Point, New South Wales",Privately Held,1996,"2-14 Atkinson Rd, Taren Point, New South Wales 2229, AU",-34.022851,151.130371,"natural skincare, skincare manufacturer, ISO 9001, organic certified, australian made, and indigenous ingredients"
Dutjahn Sandalwood Oils Pty Ltd. ,http://www.dutjahn.com,,Cosmetics,2-10 employees,"Osborne Park, Western Australia",Privately Held,2017,"14 Collingwood St, Osborne Park, Western Australia 6017, AU",-31.90056,115.812587,"Sandalwood Oil, Essential Oil Distillation, Santalum spicatum, Indigenous Business, and Kalgoorlie Business"
ELEVEN Australia North America,https://elevenaustralia.com,,Cosmetics,2-10 employees,"Collingwood, Victoria",Privately Held,2011,"73 Cromwell St, Collingwood, Victoria 3066, AU",-37.806237,144.989869, 
VANI-T,http://www.vani-t.com,,Cosmetics,11-50 employees,"Adelaide, South Australia",Privately Held,2004,"464 Pulteney Street, Adelaide, South Australia 5000, AU",-34.934722,138.606718,"Spray Tanning, Mineral Cosmetics, Bodywear, and Skincare"
Leif Products,http://www.leifproducts.com,,Cosmetics,2-10 employees,"Surry Hills, New South Wales",Privately Held,,"61 Marlborough St, 67, Surry Hills, New South Wales 2010, AU",-33.885877,151.212781,"Australian Beauty, Clean Beauty, Amenities, Skincare, Haircare, Beauty, Australian Botanicals, Natural Beauty, Wellness, Lifestyle, and Selfcare"
BIOLOGY Smart Skincare,http://biologyskin.com/,,Cosmetics, ,,,,"4-6 Meeks Road, Marrickville, NSW 2204, AU",-33.910763,151.162884, 
COCOOIL,http://www.cocooil.com.au,,Cosmetics,11-50 employees,NATURAL SUNCARE,Privately Held,2013, , , , 
Margifox Distributors,http://www.margifox.com.au,1300 850 008,Cosmetics,11-50 employees,"Noosaville, Queensland",Privately Held,1999, ,-19.571149,147.402262,"skin care, cosmetics, and beauty industry"
The Bearded Chap,http://www.thebeardedchap.com,,Cosmetics,2-10 employees,"East Brisbane, Queensland",Privately Held,2013,"47 Manilla St, East Brisbane, Queensland 4169, AU",-27.480753,153.042172,"Beard Oil, Beard Grooming, Shaving Products, Mustache Wax, Beard & Hair Combs, Beards, Gentlemen Grooming Products, Beard Balm, and Beard Wash"
PUMP Haircare,https://pumphaircare.com/,,Cosmetics,11-50 employees,,Privately Held,2017,"Chatswood,  2067, AU",-33.796248,151.177992, 
Jasmin Organics,http://www.jasminorganics.com,,Cosmetics,11-50 employees,"Tamborine Mountain, QLD",Privately Held,1999,"197 Long Road, Tamborine Mountain, QLD 4272, AU",-27.927171,153.198828,"Organic Skin Care, Luxury Skin Care, Premium Skin Care, Natural Skincare, and Organic Beauty"
LYCON Cosmetics HQ: Australia,http://www.lycon.com.au,,Cosmetics,51-200 employees,"West End, Queensland",Privately Held,1978,"115 Jane Street, West End, Queensland 4101, AU",-27.477379,153.005733,"Waxing Products, Beauty, Skincare, and Beauty Treatment Training"
Refine Cosmetic Clinic,http://refineclinic.com/index.html,,Cosmetics,11-50 employees,"Bondi Junction, NSW",Privately Held,,"Westfield Tower 2, 2/101 Grafton Street, Bondi Junction, NSW 2022, AU",-33.895884,151.249252,"Breast augmentation, Breast lift, Breast reduction, Nipple repair, Liposuction, Male breast reduction, Male abdominal etching, Blephroplasty, Face lift, S lift, Tummy tuck, Brow lift, Cheek implants, and Chin implants"
Mukti Organics,http://muktiorganics.com,754352111,Cosmetics,11-50 employees,"Maleny, Queensland",Privately Held,2000,"37 Coral St, Maleny, Queensland 4552, AU",-26.761343,152.848888, 
lük beautifood Pty Ltd,http://www.lukbeautifood.com,,Cosmetics,2-10 employees,"Belrose, New South Wales",Privately Held,2012,"Warehouse 1,, 13b Narabang Way, Belrose, New South Wales 2085, AU",-33.706419,151.211834,"100% Natural Makeup, New Product Development, Customer Service, and Online Marketing"
Glow By Michelle Mura,http://glowbymichellemura.com,410387721,Cosmetics,0-1 employees,"Sydney, New South Wales",Sole Proprietorship,2020,"Sydney, New South Wales 2000, AU",-33.868125,151.207973, 
Neon Cosmetics Pty Ltd,http://neoncosmetics.com.au/,,Cosmetics,51-200 employees,"Bayswater, Victoria",Privately Held,1987,"39 London Drive, Bayswater, Victoria 3153, AU",-37.844985,145.281254,"GMP Certified, SEDEX Member, Product formulation, manufacturing, quality assurance & quality control, regulatory affairs and compliance, and Full Private Label services"
Organic Nation,http://www.organicnation.com.au,,Cosmetics,11-50 employees,"Brighton, Victoria",Privately Held,2015,"202 Bay Street, Brighton, Victoria 3186, AU",-37.904896,144.999014,"Results driven botanical skincare, Inspired body treatments with authentic rituals, and High performance botanical haircare"
Incolabs Pty Ltd,http://www.innoxa.com.au,,Cosmetics,11-50 employees,,Privately Held,, ,-38.094211,144.368721,Marketing & Distribution
All Saint Clinic and Le Petit Saint,https://allsaintsclinic.com.au/,+61 2 9696 5050,Cosmetics,11-50 employees,"Double Bay, New South Wales",Privately Held,,"50 Bay St, Double Bay, New South Wales 2028, AU",-33.875569,151.241817,"skincare, facial care, skin treatment, beauty, dermal therapy, wellness, nutrition, non-surgical, cosmetic, liquid facelift, laser, heal lite, peel treatment, and retail"
Cosmetic Nurse Co,http://www.cosmeticnurseco.com,,Cosmetics,2-10 employees,"Yarraville, VIC",Partnership,2017,"28 Birmingham St, Yarraville, VIC 3013, AU",-37.815329,144.889784, 
Kryolan Professional Make-Up Australia,http://www.kryolan.com.au,,Cosmetics,11-50 employees,"Braeside, VIC",Privately Held,,"86 Woodlands Drive, Braeside, VIC 3195, AU",-38.012344,145.117344,"Cosmetics, Professional Make-Up, Education & Training, and Theatrical Make-Up & Special Effects"
Perfume by Nature,http://www.perfumebynature.com.au,,Cosmetics,2-10 employees,"Central Coast, NSW",Privately Held,2008,"Central Coast, Central Coast, NSW  AU",-33.427354,151.445776,Perfume Custom Design and Natural Perfumery
Nudie Glow,http://www.nudieglow.com,,Cosmetics,2-10 employees,"Melbourne, VIC",Privately Held,2016,"Melbourne, VIC 3000, AU",-37.813046,144.962398, 
Make UP Cosmetics,http://www.makeup-cosmetics.com.au,,Cosmetics,2-10 employees,"Alexandria, NSW",Public Company,2009,"Unit 52, 20-28 Maddox st, Alexandria, NSW 2016, AU",-33.909808,151.192961,Make Up Manufacturing and Natural Makeup manufacturer
Naked Tan,http://www.nakedtan.com.au/,,Cosmetics,11-50 employees,"Alexandria, NSW",Privately Held,2007,"85 Bourke Road, Alexandria, NSW 2015, AU",-33.919667,151.187554,"Spray Tan, Beauty, and Cosmetics"
Ayushman Herbals,http://www.ayushmanherbals.com,,Cosmetics,11-50 employees,,Privately Held,2012, ,-34.913274,138.666993,"Beauty care products-Face creams, Hair oil, Hair Cool oil, Shampoo,, Cleansing creams, Facial Scrubs Soaps, body lotions, Health care products -Herbal water, Weight loss, Memory Boosters, Joint pains, Diabetic,, and Blood Pressure, Mosquitos spray,herbal tea"
Brisbane Anti Wrinkle & Skin Studios,https://antiwrinklebrisbane.com.au/,,Cosmetics,11-50 employees,"East Brisbane, Queensland",Privately Held,,"971 Stanley St E, East Brisbane, Queensland 4169, AU",-27.488474,153.046911, 
Wrinkles Schminkles,http://www.wrinklesschminkles.com,61414655144,Cosmetics,2-10 employees,"Sydney, NSW",Privately Held,2015, , , , 
Barbara.com, ,,Cosmetics, ,,,, , , , 
SAX International Pty Ltd,http://www.saxinternational.com.au,,Cosmetics,51-200 employees,,Privately Held,,AU, , , 
Forever Flawless,http://www.foreverflawless.com.au,,Cosmetics,2-10 employees,,Partnership,,"3000, AU",-37.813046,144.962398, 
Miss Eyelash,http://www.misseyelash.com.au,+61 425 388 973,Cosmetics,2-10 employees,"Mt Eliza, Vic",Sole Proprietorship,2010,"The Village, Mt Eliza, Vic 3930, AU",-38.186008,145.092034, 
Permanent Makeup,http://www.pixissive.com,,Cosmetics,51-200 employees,,Self-Employed,2012, ,-33.427356,151.332415, 
Victorian Cosmetic & Dermal,http://victoriancosmetic.com.au/,,Cosmetics,11-50 employees,"Berwick, VIC",Privately Held,2005,"26 Clyde Road, Berwick, VIC 3806, AU",-38.033206,145.34299,"laser hair removal, laser tattoo removal, skin treatments, low intensity laser therapy, microdermabrasion, cosmetic injections, chemical peels, photo rejuvenation, and skin needling"
Mirenesse Cosmetics,http://www.mirenesse.com,,Cosmetics,11-50 employees,"Melbourne, Vic",Privately Held,1999,"PO Box , Melbourne, Vic 3036, AU",-37.825071,144.978682, 
Agencie+,http://www.agencieplus.com.au,+61 2 9411 5550,Cosmetics,11-50 employees,"Sydney, NSW",Sole Proprietorship,2015,"Sydney, NSW 2068, AU",-33.901541,151.198098,"Cosmetics, Sales, Sell-through Eventing, Brand Education, and Eventing"
SEASOUL COSMETICS,http://www.seasoulcosmetics.com,,Cosmetics,11-50 employees,,Privately Held,2013, ,-37.800587,144.899731,"Natural Origin Harmful Chemical Free Dead Sea based Cosmetics, Professional & Consumer Range, Body Scrub & Body Massage Dead Sea Candle, Spa & Salon Skin Care Range, MakeUp, Color Cosmetics, Lead Free, and Skill Training Academy"
McArthur Skincare,http://mcarthurskincare.com,,Cosmetics,11-50 employees,"Perth, WA",Public Company,2010, ,-16.289062,135.832311,"Therapeutic Products, Skincare Products, Hair Care Products, Natural Products, PawPaw Products, Papaya Products, Cosmetic Products, Papaw Products, Health Care Products, McArthur Pawpaw Extract™, Eczema Relief, Arthritis Relief, and Psoriasis & Dermatitis Relief"
La Mav,http://www.lamav.com,,Cosmetics,11-50 employees,"Castle Hill, NSW",Privately Held,2008,"37/ 7 Salisbury Rd, Castle Hill, NSW 2154, AU",-33.730258,150.976404,"Skin Care, Anti Aging, Organic, Cosmetics, Cruelty Free, Organic Beauty, Beauty, and Makeup"
EAORON,http://www.eaoron.com.au/,,Cosmetics,51-200 employees,"Sydney, NSW",Privately Held,2014,"5 Rider Blvd, Rhodes, Sydney, NSW 2138, AU",-33.832517,151.086195,"wholesale, social media, health, cosmetics, skincare, skin, and anti aging"
Mismo Body Care,http://www.mismo.com.au,07 53095513,Cosmetics,2-10 employees,"Brisbane, Queensland",Sole Proprietorship,2004,"Brisbane, Brisbane, Queensland  AU",-27.469309,153.026164,"Rejuvenating Gel a special serum to smooth your skin, ACE Vitamin C serum the most amazing skin rejuvenator, Mineral Makeup for a glowing star look, Anti Wrinkle Cream, a Vitamin C moisturiser. You won't find this baby anywhere else in the world, MiSMo MSM powder in a pharmaceutical grade for arthritis and joint pain, and MiSMo Magnesium Gel Forte is applied to provide relief from aches and pains caused by exercise, joint problems and arthritism"
CEMOY,http://www.cemoy.com,,Cosmetics,51-200 employees,"SYDNEY, NSW",Privately Held,2016,"SYDNEY, NSW 2000, AU",-33.901541,151.198098, 
The Australian Natural Soap Company,http://www.theansc.com.au,,Cosmetics,2-10 employees,"Dandenong, Victoria",Public Company,2013,"1/45 Sinclair Rd, Dandenong, Victoria 3175, AU",-37.988425,145.197438,"All natural skincare products, remedies and cosmetic products, environmentally friendly household cleaning products that are grey water friendly, palm oil free, and vegan and handmade cruelty free with no nasty chemicals, sulphates or preservative parabens."
Etoile Collective,http://www.etoilecollective.com.au,,Cosmetics,2-10 employees,"Melbourne, VIC",Privately Held,,"Melbourne, Australia, Melbourne, VIC 3000, AU",-37.811612,144.960332, 
Fragrances of the World,http://www.fragrancesoftheworld.com/,,Cosmetics,2-10 employees,"Sydney, NSW",Public Company,1982,"PO Box 3014, Blakehurst, Sydney, NSW 2221, AU",-33.868633,151.209421,Fragrance Classifications and Fragrance Information
Artav Australia,http://www.artav.com.au,,Cosmetics,51-200 employees,"Regency Park, South Australia",Privately Held,1950,"575 South Rd, Regency Park, South Australia 5010, AU",-34.855553,138.565845,"Hairdressing, Manufacturing, Exporting, Australian Printing Specialist, Natural Look, Arturo Taverna, Dispel, Caflon Ear Piercing, Girlboy, Luminart, Waxing, and Tanning"
AUS Cosmetics,http://auscosmetics.com.au,(02) 9574 5050,Cosmetics,11-50 employees,"Taren Point, New South Wales",Privately Held,2013,"2/16 Atkinson Rd, Taren Point, New South Wales 2229, AU",-34.023376,151.129822,"contract manufacturing, contract manufacturing cosmetics, cosmetics, and cosmetic manufacturing"
Cheeky Squirt,http://www.cheekysquirt.com.au,,Cosmetics,2-10 employees,"Geelong, Victoria",Privately Held,2020,"Geelong, Victoria  AU",-38.150785,144.361579, 
Saya Skincare,http://www.sayaskin.com,,Cosmetics,2-10 employees,"Noosaville, QLD",Public Company,2009,"40 Gateway Drive, 6, Noosaville, QLD 4566, AU", , , 
Trulux,https://trulux.com.au/,,Cosmetics,11-50 employees,"Frenchs Forest, NSW",Privately Held,2013,"1-3 Rodborough Road, Unit C3, Frenchs Forest, NSW 2086, AU",-33.753934,151.241694, 
Beautybay, ,,Cosmetics, ,"Homebush West, New South Wales",,, , , , 
DMK Skin Australia & New Zealand,http://dmkskin.com.au/,,Cosmetics,11-50 employees,"Artarmon, New South Wales",Privately Held,1999,"9 Waltham St, Artarmon, New South Wales 2064, AU",-33.814594,151.188389,"Skin Revision, Skin Care, Distributor, Education, Professional Skin Care, and Post Surgery Skin Revision"
Zubias Threading (Zubias Pty Ltd),http://www.zubiasthreading.com.au,,Cosmetics,51-200 employees,,Privately Held,2008,"20 Signal Terrace, Unit 3, Cockburn Central, wa 6164, AU",-32.12667,115.856429, 
Organic Island,http://www.organicIsland.com.au,,Cosmetics,2-10 employees,"Brisbane, Queensland",Privately Held,2006,"PO Box 2223, Fortitude Valley, Brisbane, Queensland 4006, AU",-27.469309,153.026164, 
U Brand Cosmetics ,https://www.ubrandcosmetics.com,02 95267075,Cosmetics,2-10 employees,"Taren Point, NSW",Sole Proprietorship,2013,"PO Box 2512, Taren Point, NSW 2229, AU",-34.044678,151.12238,"Cosmetic Private Labelling, Marketing and Sales Solutions, Manufacturing, Education, Product Development, and Packaging Solutions"
Ring Lights Australia,https://ringlights.com.au/,1300 132 158,Cosmetics,11-50 employees,"Sydney, New South Wales",Privately Held,,"Sydney, New South Wales 2171, AU",-33.868633,151.209421,"LED Ring Lights, Desktop Ring Lights, and Selfie Lamp"
Salon And Spa,http://salonandspa.com.au,,Cosmetics, ,,,, ,-22.258207,117.986605, 
Finn Cosmeceuticals,http://www.finnindia.com,,Cosmetics,51-200 employees,,Privately Held,2009, ,-35.4,138.81667,"Skin care, Hair care, Skin healing/ Treatment, Mens, Make up, and Fragrance"
Gleam Up ,https://www.facebook.com/GleamUpUnimelb/,,Cosmetics,11-50 employees,,Nonprofit,,"Melbourne,   AU",-37.825071,144.978682, 
Makeup Cartel Pty Ltd,http://www.ponicosmetics.com.au,,Cosmetics,2-10 employees,"Southport, Queensland",Privately Held,2014,"5/507 Olsen Avenue, Southport, Queensland 4215, AU",-27.97238,153.404351,PONI Cosmetics and esmi Skin Minerals
Botany Essentials Pty Ltd,http://botanyessentials.com.au,,Cosmetics,11-50 employees,"Braybrook, Victoria",Privately Held,1995,"39 Cranwell St, Braybrook, Victoria 3019, AU",-37.778939,144.862121,"Skin Care, Manufacturing, Export, Organic Products, Vegan Products, Product Development, and Contract Manufacturing"
The Clinic by Scott & Sullivan,http://www.theclinic.net.au,,Cosmetics,2-10 employees,"Bondi Junction, NSW",Partnership,1999,"Level 22, Westfield Tower 1, 520 Oxford Street, Bondi Junction, NSW 2022, AU",-33.895884,151.249252,"Anti-Ageing, Skincare Products, Pregnancy Skin Care, Bridal Skin Care, Cosmetic Injections, Lip Enhancement, Acne, Rosacea, Sensitive Skin, Fraxel, Thermage, IPL, Pelleve, Dry Skin, Pigmentation, Melasma, and Skin Firming"
Roccoco Botanicals,http://www.roccoco.com,07 38071429,Cosmetics,11-50 employees,"Yatala, QLD",Privately Held,2011,"1/12Commerce Circuit, Yatala, QLD 4207, AU",-27.742436,153.227687,"Acne, Rosacea, Sensitive Skin, Eczema, and Dry Scalp"
Banksia Australia,https://banksiacosmetics.com/,+61 434104248,Cosmetics,2-10 employees,"New Lambton, New South Wales",Partnership,2020,"Lambton Rd, New Lambton, New South Wales 2305, AU",-32.926505,151.711979,"serums, botanicals , cosmetics, ethical, and australian"
O Cosmedics,http://ocosmedics.com,,Cosmetics,51-200 employees,,Privately Held,2011,AU, , ,"Skin, Skin Care, Cosmedics, Anti-Aging, Skin Youth, Skin Health, Skin Confidence, and Australian Made"
Latonas Professional Makeup Supplies,http://www.latonasmakeup.com.au,,Cosmetics,2-10 employees,"Brisbane, Queensland",Privately Held,1998,"303 Logan Road, Stones Corner, Brisbane, Queensland 4120, AU",-27.499424,153.047043,"Supply of Makeup Products for Film, TV, Photography, Wedding Makeup Products and Services, Makeup and Hair Stylists for Film, TV, Photography, and Special FX Products"
Issada Cosmetic Manufacturer & Wholesaler,http://issada.com,739042288,Cosmetics,11-50 employees,"Bulimba, Queensland",Privately Held,2006,"77 Oxford St, Unit 5, Bulimba, Queensland 4171, AU",-27.451308,153.058925,"Mineral makeup, Makeup Accessories, Cosmetics, Baked Minerals, Lipstics, Highlighters, Foundations, and CC8"
Beauty Fridge,http://www.beautyfridge.com,,Cosmetics,11-50 employees,,Privately Held,,"Perth,   AU",-31.960773,115.834088, 
Eminence Organic Skin Care Australia,https://www.eminenceorganics.com.au,,Cosmetics,2-10 employees,"Brisbane, Queensland",Privately Held,2004,"PO Box 277, Kedron, Brisbane, Queensland 4031, AU",-27.469309,153.026164,"Organic Skin Care, Professional Spa Products, Organic Body Care, and Organic Health & Beauty"
Greenleaf Cosmetics Australia,http://www.greenleafcosmetics.com.au,,Cosmetics,51-200 employees,"Derrimut, Victoria",Privately Held,,"20 Calarco Dr, Derrimut, Victoria 3030, AU",-37.799744,144.75427, 
Urban Skincare Co.,http://urbanskincareco.com/,,Cosmetics, ,,,,"4-6 Meeks Road, Marrickville, New South Wales 2204, AU",-33.910763,151.162884, 
esmi Skin Minerals,http://www.esmi.com.au,1300661176,Cosmetics,11-50 employees,"Southport, QLD",Privately Held,,"5/507 Olsen Avenue, Southport, QLD 4215, AU",-27.97238,153.404351, 
MORRIS MOTLEY,http://morrismotley.com,,Cosmetics,2-10 employees,"Collingwood, Victoria",Privately Held,2012,"4-12 Langridge St, Collingwood, Victoria 3066, AU",-37.806286,144.983651,"Premiums Mens Grooming, Hair Products, and perfume"
INSKIN COSMEDICS,http://www.inskincosmedics.com.au,,Cosmetics,51-200 employees,"Sydney Olympic Park, New South Wales",Privately Held,,"10 Hill Rd, 1, Sydney Olympic Park, New South Wales 2127, AU", , , 
Hairjamm,http://hairjamm.com,,Cosmetics,11-50 employees,,Privately Held,,AU, , , 
Pure Indulgence Skin and Beauty,http://www.pureindulgence.com.au,,Cosmetics,51-200 employees,"Loganholme, Queensland",Partnership,1990,"49/17 Carirns Street, Loganholme, Queensland 4129, AU",-27.685012,153.190251, 
Eye of Horus Cosmetics,http://eyeofhoruscosmetics.com,,Cosmetics, ,,,,AU, , , 
Ainhoa Cosmetics Australia,http://ainhoacosmetics.com.au,,Cosmetics,2-10 employees,"Cottesloe, Western Australia",Privately Held,2011,"PO Box 345, Cottesloe, Western Australia 6011, AU",-31.99538,115.760147,"Skin care, Beauty, Professional Salons, and Cosmetics"
Natralus Australia,http://www.natralus.com.au,,Cosmetics,11-50 employees,"MOUNT BARKER, SA",Privately Held,2011,"PO Box 1665, MOUNT BARKER, SA 5251, AU",-35.099351,138.902906,"Natural Paw Paw Ointments - Petrochemical Free, Australia's First Paw Paw Gel + Spray Gel, Non-Alcohol Based Hand Sanitiser, Products are not tested on Animals, Natural & Organic Products, All products Australian made + owned, and 100% Pure Aloe Vera Gel + Spray"
BLAQ,http://blaq.co,,Cosmetics,2-10 employees,"Darlinghurst, New South Wales",Privately Held,,"Farrell Ave, Darlinghurst, New South Wales 2010, AU",-33.878132,151.219439, 
FINEVER,http://www.finever.com,,Cosmetics,51-200 employees,,Public Company,,AU, , , 
Red Earth Australia,http://www.redearth.com,,Cosmetics,11-50 employees,"Prahran, Vic",Privately Held,1991,"Suite 7, 27 Izett Street, Prahran, Vic 3181, AU",-37.848267,144.991936,Cosmetics and Skin care
AROMA BEAUTY THERAPY CLINIC,http://www.aromabeautytherapy.com.au,,Cosmetics,0-1 employees,"Gold Coast, QLD",Privately Held,2002,"Morala Ave, Runaway Bay, Gold Coast, QLD 4216, AU",-27.920067,153.404278,"Aromatherapy Spa Face and Body Treatments, Medi Spa Facials and Cosmetic Peels, Full Make-Overs using Mineral and Organic Makeup, and No nasties range of nail, lip and eye colours"
101 Lifestyle,http://www.101lifestyle.co/,,Cosmetics,2-10 employees,"North Melbourne, Victoria",Privately Held,2017,"64 Sutton St, North Melbourne, Victoria 3051, AU",-37.791877,144.937978, 
Happy Skincare,http://happyskincare.com.au,,Cosmetics,2-10 employees,,Self-Employed,2010,"Newcastle,   AU",-32.9278,151.782607,"100% natural skincare, Organic skincare, Vegan skincare, Not tested on animals, Australian made and owned, and Problem skin - from oily, blemished skin to dry, irritated or very senstiive skin"
TechnoTan Australia,http://www.technotan.com.au,,Cosmetics,11-50 employees,"Perth, Western Australia",Public Company,2001,"Unit 1, 41 Biscayne Way, Jandakot, Perth, Western Australia 6104, AU",-32.104776,115.864697, 
Liquid Australia,http://www.Lqd.co,,Cosmetics,51-200 employees,"South Yarra, Victoria",Privately Held,2009,"Level 1, 54 Davis Avenue, South Yarra, Victoria 3141, AU",-37.839059,144.99087,"Men's Skin Care Products, Anti-Aging, Hydration, Skin Repair, Acne Solutions, and Shaving Solutions"
PLSC Private Label Skin Care,http://www.privatelabelskincare.com.au,,Cosmetics,2-10 employees,"Tweed Coast, NSW",Public Company,2013, ,-33.917299,150.927997,"Private Label Skin Care, Cosmetics, Beauty Industry, Salons, and Skin"
Dollie Hair Extensions,http://www.dolliehairextensions.com.au,,Cosmetics,2-10 employees,"Sydney, NSW",Sole Proprietorship,,"PO Box 60, Blacktown, Sydney, NSW 2148, AU",-33.868633,151.209421,"Hair Extensions, Clip Extensions, Clip In Hair Extensions, Hair Extensions Weft, Cheap Hair Extensions, Micro Hair Extensions, Clip In Human Extensions, and Clip in Hair Extensions"
Natural Approach Deodorant,https://www.naturalapproach.net.au/,,Cosmetics,0-1 employees,"Mildura, Victoria",Self-Employed,2018,"Olive Ave, Mildura, Victoria 3500, AU",-34.199704,142.153732,"Natural Deodorant, Wholesale, Retail, Product Development, and Personal Health"
SOAK Superfood Skincare,http://soakskin.com/,,Cosmetics, ,,,,"4-6 Meeks Road, Marrickville, New South Wales 2204, AU",-33.910763,151.162884, 
Libertine Parfumerie,http://www.libertineparfumerie.com.au,02 8002 4488,Cosmetics,11-50 employees,"Darlinghurst, NSW",Privately Held,2008, ,-27.465473,153.013131, 
Cherry Blooms Group Pty Ltd,https://www.cherryblooms.com.au,,Cosmetics,11-50 employees,"Helensvale, QLD",Public Company,2008,"2/7 Millennium Circuit, Helensvale, QLD 4212, AU",-27.929949,153.333614, 
HANDSOME - Men's Skincare,http://ha.ndso.me,,Cosmetics,2-10 employees,"Melbourne, VIC",Privately Held,2014,"Level 3, 360 Little Collins Street, Melbourne, VIC 3000, AU",-37.815381,144.962681,Skincare and Men's Health
Vanessa Megan,http://www.vanessamegan.com,,Cosmetics,2-10 employees,"Marrickville, NSW",Privately Held,,"2, Shepherd Street, Marrickville, NSW 2204, AU",-33.90308,151.163931, 
ST. ROSE Artisan Fragrances,https://www.st-rose.com,,Cosmetics,2-10 employees,"Brisbane, Queensland",Partnership,2018, ,-33.726071,151.286408,"Clean Beauty, Clean Perfume, Cruelty Free Beauty, Vegan Beauty, Non toxic Beauty, Non toxic Perfume, Vegan Perfume, Natural Fragrance, and Sustainable Beauty"
LI'TYA,http://www.litya.com,,Cosmetics,11-50 employees,Spa care from the Australian Dreamtime,Public Company,1998,"Melbourne,   AU",-37.825071,144.978682, 
La Biosthetique Australia & New Zealand,http://labiosthetique.com,,Cosmetics,11-50 employees,"Sydney, NSW",Privately Held,,"4/5-15 Epsom Rd, Rosebery, Sydney, NSW 2018, AU",-33.910744,151.203383, 
Helices Skincare,http://www.helicesskincare.com,457169230,Cosmetics,2-10 employees,"Brisbane, QLD",Privately Held,, ,-37.775874,145.01844,"Skin care, Beauty, Made in Italy, luxury, antiaging, 100%natural, and parabenfree"
Lovely Skin,http://www.lovelyskin.com.au,423237966,Cosmetics,2-10 employees,"Melbourne, Victoria",Partnership,2015,"Melbourne, Victoria 3196, AU",-37.825071,144.978682,"Perfumes, Fragrances, Body Gels, Body Creams, Body Mist, and Bath Foams"
tbh Skincare,http://tbhskincare.com,,Cosmetics,2-10 employees,,Privately Held,2019,"Sydney,   AU",-33.868633,151.209421, 
Gaylia Kristensen Australia,https://www.gayliakristensen.com.au,,Cosmetics,2-10 employees,"Melbourne, Victoria",Privately Held,2010,"390 St Kilda Rd, Melbourne, Victoria 3004, AU",-37.834263,144.973553, 
Cactus Flower Skincare,http://www.cactusskincare.com,,Cosmetics,2-10 employees,"Sydney, New South Wales",Sole Proprietorship,1993,"Sydney, New South Wales 2106, AU",-33.868633,151.209421,"Dry skin, Sensitive skin, Oily Skin, Skincare, Normal Skin, Combination Skin, Natural Products, Beauty, Organic Skincare, Facial Creme, Cleanser, Moisturiser, Exfoliant, Facial Oil, Clay Mask, White Clay Mask, Eye Creme, Skin Regimen, Skin Troubleshooting, Redness, Discolouration, Age Spots, and Anti Aging"
TK's Cosmetics,http://www.tkscosmetics.com.au,1300 104 435,Cosmetics,2-10 employees,"Lilydale, Victoria",Privately Held,2011,"122 Bastow Rd, Lilydale, Victoria 3140, AU",-37.76177,145.367766,"cosmetics, beauty, and lashes"
Primera Private Label Skincare and Cosmetics,http://www.primera.net.au,,Cosmetics,2-10 employees,"Brisbane, Queensland",Privately Held,2013,"58 Klingner Road, Scarborough, Brisbane, Queensland 4020, AU",-27.202849,153.109752,"Private Label Skincare and Cosmetics, Labelling, Natural Cosmetics, and Medical Grade Skincare and Training"
Goldfield & Banks Australia,https://goldfieldandbanks.com,,Cosmetics,2-10 employees,"Sydney, NSW",Privately Held,2016,"Sydney, NSW 2000, AU",-33.901541,151.198098, 
METIS Skin,http://www.metisskin.com/,,Cosmetics, ,,,,"4-6 Meeks Road, Marrickville, New South Wales 2204, AU",-33.910763,151.162884, 
Ungex Pty Ltd,https://www.ungex.com/,+61 3 9939 7575,Cosmetics,2-10 employees,"Melbourne, Victoria",Privately Held,2014,"Suite 1510/530 Little Collins St, Melbourne, Victoria 30000, AU",-37.825071,144.978682,Demodex Mite Solutions
BIODROGA Australia,http://www.biodroga.com.au,,Cosmetics,2-10 employees,"Sydney, New South Wales",Public Company,,"Shop 3a/71-77, Oxford Street, Sydney, New South Wales 2022, AU",-33.868633,151.209421,"Biodroga Distribution, Beauty Therapy Training, Product Training, and Product Education"
Makeup Cartel,http://www.makeupcartel.com.au,1300661176,Cosmetics,11-50 employees,,Privately Held,2013,"Gold Coast,   AU",-28.017366,153.42725, 
Leyton House Professional,http://leytonhouseprofessional.com/,+61 408 788 869,Cosmetics,11-50 employees,"Brisbane, QLD",Privately Held,2007,"Brisbane, QLD 4102, AU",-27.469309,153.026164,"Professional Only Brand, Revolutionary Colouring System, Hair Colour, salon support, Professional Hair Color, and Customer Service"
We Are Feel Good Inc.,https://www.wearefeelgoodinc.com.au/,+61 488 422 844,Cosmetics,2-10 employees,"Dunsborough, WA",Partnership,2016,"Dunsborough, WA 6281, AU",-33.619981,115.088786, 
Greencare Developments Pty Ltd,http://greencaredev.com.au,,Cosmetics, ,"Dandenong, Victoria",,, ,-30.516548,151.650513, 
Beauty Mechanics,http://beautymechanics.com.au/,,Cosmetics,2-10 employees,"Southport, Queensland",Sole Proprietorship,2004, ,-36.732982,147.172565,Powerful Skin Care Technology Systems and Beauty Consulting
Gelicious Cosmetics,http://gelicious.com,,Cosmetics,11-50 employees,"Wahroonga, NSW",Privately Held,2011, ,-37.800587,144.899731, 
Brow Code,http://www.browcode.com,,Cosmetics,11-50 employees,,Partnership,,"Gold Coast,   AU",-28.017366,153.42725, 
STYLE STORY,http://www.stylestory.com.au,,Cosmetics,2-10 employees,"Tarragindi, Queensland",Privately Held,2014, ,-34.839654,138.489394, 
SK-II AUSTRALIA,http://sk-ii.com.au,,Cosmetics, ,,,, ,-32.66667,151.6, 
Makeup 4 Brides,http://www.makeup4brides.com.au,,Cosmetics,11-50 employees,"Maroochydore BC, Queensland",Public Company,1999,"P.O. Box 5909, Maroochydore BC, Queensland 4558, AU",-23.992438,134.050443,"Bridal makeup, wedding makeup, bridal hair styling, and wedding hair styling"
Bridget Black,http://www.bridgetblack.com.au,,Cosmetics,2-10 employees,"Perth, Western Australia",Privately Held,2007, ,-28.18378,134.39442,"Skin Care, Body Care, skincare, Bodycare, Organic Skin care, Baby Skin Care, Health & Beauty, Candles, Gifts, Gift Boxes, baby organic skin care, baby organic cotton clothing, cleansers, exfoliators, moisturisers, and anti ageing"
INGLOT Australia,https://inglotcosmetics.com.au/,,Cosmetics,51-200 employees,"Penrith, SA",Privately Held,,"50 Cassola Place, Penrith, SA 2750, AU",-29.467956,135.915347, 
Cinch Skin,https://cinchskin.com,,Cosmetics,2-10 employees,"Melbourne, VIC",Sole Proprietorship,,"Melbourne, VIC  AU",-37.825071,144.978682,"Beauty, Skincare, Australian Made, and Australian Owned"
COCOON LUXURY AUSTRALIA™️,http://www.cocoonluxuryaustralia.com.au,,Cosmetics,2-10 employees,"Perth , WA",Sole Proprietorship,2018,"Perth , WA 6000, AU",-31.956035,115.847023,"Cosmetics, Luxury, Personal Care, Beauty, Skin Care, Organic Skin Care, Cruelty Free, Natural Skincare, Spa, Retail, Skin Care Treatment, Mask for Face, Mask for Body, Vegan Friendly, Eco Friendly, Body Polish, Organic, Body Treatment, Body Balm, Anti-Aging, Vitamin Rich, Uniquely Australian, Self Care, Skin Preserving, Natural, Organic Beauty, Luxury Body Care, and Australian Made"
Carbon Coco,http://www.carboncoco.com,,Cosmetics,11-50 employees,"Melbourne, Victoria",Privately Held,2016,"Melbourne, Victoria  AU",-37.825071,144.978682, 
Makeup Weapons,http://www.makeupweapons.com.au,,Cosmetics,2-10 employees,"Brisbane, Qld",Privately Held,2015,"1/15 Anthony St West End , Brisbane, Qld 4101, AU",-27.476875,153.006934,"makeup brushes, Brush Bomb Soap, Bio Glitter, Cruelty Free, and Vegan"
Australian Society of Cosmetic Chemists,http://ascc.com.au,,Cosmetics, ,,,, , , , 
BEACHFOX,http://www.beachfox.com.au,,Cosmetics,2-10 employees,"Brookvale, New South Wales",Privately Held,2018,"4/8 Orchard Rd, Brookvale, New South Wales 2100, AU",-33.765764,151.271582, 
Bio-Cosmetics Lab Pty Ltd,http://www.bio-cosmeticslab.com.au,02 4647 5674,Cosmetics,11-50 employees,"Smeaton Grange, New South Wales",Privately Held,2014,"Bluett Dr, Smeaton Grange, New South Wales 2567, AU",-34.036701,150.757902,"skincare, Manufacturing, Formulations, Warehousing, Hair Care, Large Productions, Small Productions, ISO 22716 Accredited, and GMP"
Victorian Dermal Group,http://www.victoriandermalgroup.com.au,98539264,Cosmetics,2-10 employees,"Kew, Victoria",Public Company,2012,"Level 2, Suite 205, 1 Princess Street, Kew, Victoria 3101, AU",-37.807059,145.028588,"Clinical Skin Peels, Skin Tightening, Acne Treatment, Laser Hair Removal, skin rejuvenation, AntiAgeing, Depigmentation, and Vascular Treatment"
The Mango Project,https://www.themangoproject.com.au/,407418125,Cosmetics,2-10 employees,"Perth, Western Australia",Partnership,2019,"Perth, Western Australia  AU",-31.960773,115.834088, 
Private Label Dynamics,https://www.privatelabeldynamics.com,(+61) 1300 791 455,Cosmetics,11-50 employees,"Coolum Beach, QLD",Privately Held,2012,"Unit 8, 30 Corbould Road., Coolum Beach, QLD  4573, AU",-26.527436,153.08251,"Organic hair products, Organic skin care products, Professional , Wholesale , Sulphate free, Silicone free, Vegan cosmetic, Made in Australia, Naturally derived, Natural ingredients, Be the brand, Hair salon supplier, Beauty salon supplier, and Animal cruelty free"
POMPOZZA CSF,http://www.pompozza.com,,Cosmetics,11-50 employees,"Melbourne, Victoria",Privately Held,2018,"Melbourne, Victoria 3000, AU",-37.813046,144.962398, 
Professional Makeup Supplies Shop,http://www.professionalmakeupsupplies.com.au,,Cosmetics,0-1 employees,,Self-Employed,,"4226, AU",-28.059551,153.387999, 
LashJoy,https://www.lashjoy.com,0450 795 191,Cosmetics,2-10 employees,"Fortitude Valley, Queensland",Privately Held,2015, , , , 
The Hair Shop,http://thehairshop.com.au,,Cosmetics, ,"Port Douglas, Queensland",,, ,-16.481282,145.462204, 
Aspect Dr,http://www.aspectdr.com.au/,,Cosmetics, ,,,,"Keysborough Clos, Keysborough, Victoria 3173, AU",-38.005867,145.167886, 
Luna Bronze,https://lunabronze.com.au/,,Cosmetics,2-10 employees,"Warriewood, New South Wales",Privately Held,2015,"Jubilee Ave, Warriewood, New South Wales 2102, AU",-33.688696,151.294127,"BEAUTY, SKINCARE, TANNING, SUNLESS TANNING, SELF TAN, and COSMETICS"
MOMMA - Ministry of Mineral Makeup Australia,https://momma.com.au,,Cosmetics,11-50 employees,"Sydney, NSW",Privately Held,2014,"Sydney, NSW 2028, AU",-33.901541,151.198098,"Chemical Free, Cruelty Free, Made in Australia, Mineral Makeup, Accredited by Choose Cruelty Free, and 100% Vegan"
MV Organic Skincare,http://mvskincare.com.au,,Cosmetics, ,,,1999,AU, , ,"Organic Skincare, Skincare, Sensitive Skin Experts, Rosacea, Eczema, Psoriasis, Aftercare Advice: Laser, peels, surgery, Acne, Hormonal Skin Conditions, Cruelty Free, and Post cancer skin sensitivities"
byGleam,http://www.bygleam.com,,Cosmetics,11-50 employees,"New York, NY",Partnership,2019, , , ,"contract manufacturing, beauty, development, and branding"
Aqua de Vida Skincare,https://www.aquadevida.com.au/,02 9051 0555,Cosmetics,2-10 employees,"Sydney, NSW",Privately Held,,"Sydney, NSW 2222, AU",-33.901541,151.198098, 
My Skincare Manufacturer,https://myskincaremanufacturer.com.au,,Cosmetics,2-10 employees,"Rutherford, New South Wales",Sole Proprietorship,2017,"33 Shipley Drive, 7-8, Rutherford, New South Wales 2320, AU",-32.712557,151.509698,"Contract Manufacturing, Natural Skin Care, Graphic Design, Label Printing, and Direct Printing"
Slick Hair Company,http://slickhaircompany.com,,Cosmetics,2-10 employees,"PORT MELBOURNE, VIC",Privately Held,2019,"PORT MELBOURNE, VIC 3207, AU",-37.83317,144.922248, 
Bkind Organic Beauty Bar,http://www.bkind.com.au,,Cosmetics,2-10 employees,,Privately Held,,"6008, AU",-31.95301,115.813916, 
Eloura Australia,http://www.elouraaustralia.com,61291607765,Cosmetics,2-10 employees,"Sydney, New South Wales",Privately Held,2018,"Sydney, New South Wales 2000, AU",-33.868125,151.207973,"cosmetics, retail, australian, hotel amenities, shampoo, conditioner, body wash, body lotion, soaps, luxury, design, natural, eco friendly, and biodegaradble"
Salon Supplies Australia,http://www.salonsuppliesaust.com,,Cosmetics,2-10 employees,"MALAGA, WA",Privately Held,1999,"1, 5 Townsend St, MALAGA, WA 6090, AU", , ,"Education, Retail Sales, Merchandising, Staff Incentives, Branding, Distribution, and Colour Education"
Ella Bache,http://simplyskinandbody.ellabache.com.au,,Cosmetics, ,,,, ,-30.514165,151.665174, 
Envisage Clinic,http://www.envisageclinic.com.au,,Cosmetics,11-50 employees,"Benowa, Qld",Privately Held,1995,"154 Ashmore Road, Benowa, Qld 4217, AU",-28.009379,153.396584,"Anti-wrinkle Injections, Dermal Fillers, Skin Rejuvenation, and Skin Peeling"
Elly Lukas,http://ellylukas.edu.au,,Cosmetics, ,"Melbourne, Victoria",,, ,-30.511479,151.663824, 
Samba Lashes P/L Trading as The Lash Lounge,http://www.thelashloungesydney.com.au,,Cosmetics,2-10 employees,"Rozelle, NSW",Self-Employed,2009,"Shop 2, 595 Darling Street, Rozelle, NSW 2039, AU",-33.8604,151.171536,Master Lash and Brow Artists
The Divine Company,http://www.thedivinecompany.com,,Cosmetics,11-50 employees,"Tweed Heads South, NSW",Partnership,2013,"3/29 Industry Drive, Tweed Heads South, NSW 2487, AU",-28.200005,153.535535, 
ALL KIND OF BEAUTY,http://www.davincimakeup.com,,Cosmetics,2-10 employees,,Privately Held,2005,"2170, AU",-33.933314,150.918733,Making Beauty Counts specializes in the importation and distribution of Branded Perfume and Mineral Cosmetics
Core Metrics Pty Ltd,http://www.core-metrics.com.au,+61 3 9484 4485,Cosmetics,11-50 employees,"Reservoir, Victoria",Privately Held,1997,"29-31, Lakeside Avenue, Reservoir, Victoria 3073, AU",-37.709589,144.987915, 
Face Mediskin,http://www.facemediskin.com.au,1800 693 223,Cosmetics,11-50 employees,"Bella Vista, New South Wales",Privately Held,2018,"33 Lexington Dr, G07, Bella Vista, New South Wales 2153, AU",-33.744185,150.955769,"Retail, Cosmetics, Cosmetic Injectables, LED Light Therapy, Anti-Wrinkle, Anti-Ageing, Beauty, Cosmetic Peels, Hydration, Filler, Face, Lips, Health, Wellness, skincare, makeup, innerhealth, and dermal therapists"
Venus Cosmetics,http://www.venuscosmetics.com.au,,Cosmetics, ,"Melbourne, VIC",Sole Proprietorship,2017,"Venus Cosmetics, Melbourne, VIC 3000, AU",-37.800587,144.899731,"Colour Cosmetics, Beauty, and Makeup"
Neferti,http://www.neferti.org,,Cosmetics,2-10 employees,"Sydney, NSW",Privately Held,,"Sydney, NSW 2000, AU",-33.901541,151.198098, 
b Clinic Medical Cosmetic Injectable Bar,http://www.bclinic.com,,Cosmetics,11-50 employees,"Fortitude Valley, Qld",Privately Held,2010,"1st Floor  Star Dental Building, 25/29 James Street, Fortitude Valley, Qld 4106, AU",-27.55732,153.003052,"Cosmetic Medical Injectables, Anti- Wrinkle injections & Muscle Relaxant, and Dermal fillers"
The Mombati Company,https://www.mombati.com.au,61280741877,Cosmetics,11-50 employees,"North Strathfield, New South Wales",Privately Held,,"5 George St, Level 1, North Strathfield, New South Wales 2137, AU",-33.863226,151.088505,"Perfumery, Bespoke Fragrance Design, Cosmetics Fragrances, Candle Fragrances, Natural Fragrance Blends, Pure Oudh, Oudh Fragrance Blends, Body Fragrances, Soap Fragrances, Personal Care, and Household Care"
ELLUS & KRUE,https://ellusandkrue.com.au/,61731846340,Cosmetics,2-10 employees,"Arundel, Queensland, Australia",Privately Held,2020,"1/8 Technology Dr, Arundel, Queensland, Australia 4214, AU",-27.931265,153.371664, 
WA Hair & Beauty,http://www.wahb.com.au,,Cosmetics,51-200 employees,"Malaga, Western Australia",Privately Held,1947,"11 Finance Place, Malaga, Western Australia 6090, AU",-31.852601,115.895535,"Hair Supplies, Beauty Supplies, and Training/Courses"
Bio Care Australia,https://www.biocareaustralia.com.au/,,Cosmetics,2-10 employees,"West Melbourne, West Melbourne",Privately Held,2016,"201-205 Kensington Road, West Melbourne, West Melbourne 3003, AU",-37.800717,144.916696,"madeinAustralia, natureproducts, Beautyproducts, Manufacturer, organic, and Hairproducts"
Labels Republic,http://www.labelsrepublic.nl,06-50450875,Cosmetics,2-10 employees,,Sole Proprietorship,2011, ,-38.000652,145.101744,Distritbutie van Beautyproducten Benelux and Importeur van Beautyproducten
Sparkling White Smile,https://www.sparklingwhitesmile.com.au/,+61 406 049 726,Cosmetics,51-200 employees,"SYDNEY, NSW",Privately Held,2014, ,-34.477535,119.366208, 
cawarra cosmetics pty ltd,http://cawarra.com.au,,Cosmetics, ,,,, , , , 
Emilly Hadrill Hair & Extensions,http://ehhairextensions.com.au,,Cosmetics, ,,,,"4/208 Liverpool St, Hobart, Tasmania 7000, AU",-42.884506,147.323888, 
Pressplay Cosmetics,http://www.pressplaycosmetics.com,,Cosmetics,2-10 employees,"Melbourne, Victoria",Privately Held,2016,"N/A, Melbourne, Victoria 3076, AU",-37.628525,145.039774,"Cosmetics, Skincare, Makeup, Innovation, Cruelty Free Products, and Environmentally Conscious"
Paul Mitchell® Australia,https://www.365salongroup.com/,,Cosmetics,11-50 employees,"Melbourne, Victoria",Privately Held,,"610 Lorimer St, Melbourne, Victoria  AU", , , 
Map of the Heart,http://mapoftheheart.com,,Cosmetics,2-10 employees,"Darlinghurst, NSW",Privately Held,2014,"222 Liverpool St, Darlinghurst, NSW 2010, AU",-33.877254,151.215996,Perfume
Black Leopard & Associates,http://www.blackleopardskincare.com,,Cosmetics,2-10 employees,"Malvern, Victoria",Privately Held,2012,"26 Grace Street, Malvern, Victoria 3144, AU",-37.859716,145.035661, 
Brisbane Lashes,https://www.brisbanelashes.com,0421-456-858,Cosmetics,2-10 employees,"Fortitude Valley, Queensland",Privately Held,2007,"65 James Street, 5, Fortitude Valley, Queensland 4006, AU",-27.458535,153.035375,"Eyelash Extensions, Training Programs, Beauty Products, and Cosmetics"
Applebox Cosmetics (Thalosophy Pty Ltd),http://appleboxcosmetics.com.au,,Cosmetics,2-10 employees,"Woollahra, NSW",Privately Held,2011,"Milton Avenue, Woollahra, NSW 2025, AU",-33.885453,151.241453,Skin Care using natural marine botanicals
Salon Support: Haircare Importer & Distributor,http://www.salonsupport.com.au,,Cosmetics,11-50 employees,"Tullamarine, Victoria",Partnership,1994,"17 Ovata Dr, Tullamarine, Victoria 3043, AU",-37.709701,144.865587,"PRAVANA Distributor , Brazilian Bond Builder , Senscience, Formulated by Shiseido , Bain de Terre , Coverline, Quantum, Acclaim , Pure Blends, and ISO"
Eden laser clinics,http://edenlaserclinics.com.au,,Cosmetics, ,,,, , , , 
OZDARE BUSINESS SERVICES PTY. LTD.,http://www.ozdare.com/,,Cosmetics, ,"SUNSHINE WEST, VIC",,, , , , 
Regrow Hair Clinics,http://www.regrowhairclinics.com.au,,Cosmetics,2-10 employees,"Maroochydore, QLD",Privately Held,2016,"Maroochydore, QLD 4553, AU",-26.654471,153.080626, 
Dreamiskin,http://www.dreamiskin.com,,Cosmetics,2-10 employees,,Partnership,2020,"Melbourne ,   AU",-37.825071,144.978682, 
Jay Haircare Imports Australaisa, ,,Cosmetics,2-10 employees,"Morrabbin, Victoria",Privately Held,2007,"P.O.Box 2257, P.O.Box  2257, Morrabbin, Victoria 3189, AU",-37.014348,143.480452, 
Dermaenergy Pty Ltd ,https://dermaenergy.com.au/,1300799709,Cosmetics,2-10 employees,,Public Company,2017,"Sydney,   AU",-33.868633,151.209421,"Medical skincare, Cleansers, Serums, Sun protection, Moisturisers, Beauty, Acne, Skin sensitivity, Reverse aging, Prevent ageing, Dry skin, Dehydration, Pigmentation, and Oily skin"
beauty's got soul.,https://www.beautysgotsoul.com,1300 911 565,Cosmetics,2-10 employees,"Melbourne, VIC",Privately Held,2019,"Melbourne, VIC 3000, AU",-37.813046,144.962398,"candles, bath and body products, occassional gifting, birthday gifts, housewarming gifts, settlement gifts, mother's day gifts, christmas gifts, corporate gifts, bff gifts, sorry gifts, thank-you gifts, champagne and chocolate gifts, hostess gifts, teacher gifts, speaker gifts, conference gifts, new baby gifts, gifts, packaging, and design"
Breeze Balm,http://www.breezebalm.com,,Cosmetics,2-10 employees,"Bundall, Queensland",Privately Held,2016,"Karp Ct, Bundall, Queensland 4217, AU",-28.005223,153.411456,"Make Up, Beauty, and Cosemetics"
CPCA Cosmetic Physicians College of Australasia,http://www.cpca.net.au/,,Cosmetics,0-1 employees,"Joondalup, WA",Nonprofit,1997,"Suite 1, Unit 4, 48 Winton Road, Joondalup, WA 6027, AU",-31.74621,115.76066,cosmetic medicine and aesthetic medicine
Beauty Expo Australia,https://www.beautyexpoaustralia.com.au/en/,,Cosmetics,2-10 employees,"Chatswood, New South Wales",Public Company,2004,"475 Victoria Ave, Chatswood, New South Wales 2067, AU",-33.797048,151.179188, 
Sundipped Tan ,https://sundippedtan.com.au/,431291529,Cosmetics,0-1 employees,"PERTH, WA",Sole Proprietorship,2019,"PERTH, WA 6065, AU",-31.960773,115.834088, 
The Cosmetic Department,http://thecosmeticdepartment.com.au,,Cosmetics,2-10 employees,"Bondi Junction, NSW",Privately Held,2006,"79-85 Oxford Street, Bondi Junction, NSW 2022, AU",-33.891753,151.245883,"Wholesale Cosmetics, Cosmetic Bins, Skincare displays, and Discounted Cosmetics"
Ottoman3 Pty Ltd,http://www.ottoman3.com,,Cosmetics,11-50 employees,"Maribyrnong, VIC",Privately Held,,"Level 2, Myer Highpoint Rosamond Road, Maribyrnong, VIC 3032, AU",-37.769718,144.888013, 
Beautyworks Cosmetica,http://www.bwcosmetica.com,,Cosmetics,11-50 employees,"Sydney, Australia",Privately Held,2015,"Shop G4 614 George Street, Sydney, Australia 2000, AU",-33.875759,151.206776,"K-beauty, cosmetics, skincare, retailer, wholesale, Makeup, Beauty , Korean Cosmetics, and Makeup Artists"
Cosmedix Australia,http://bit.ly/2C1mNHe,,Cosmetics, ,,,,"Keysborough Clos, Keysborough, Victoria 3173, AU",-38.005867,145.167886, 
Boring Without You, ,,Cosmetics,2-10 employees,"Melbourne, VIC",Privately Held,2020,"Melbourne, VIC 3121, AU",-37.825071,144.978682, 
Michael Brown Beauty,http://www.michaelbrownbeauty.com.au,,Cosmetics,0-1 employees,"Edgecliffe, NSW",Self-Employed,2012,"Suite, 3, 90 New South Head Rd, Edgecliffe, NSW 2029, AU",-32.494981,146.586903,"Makeup Artist, Presenter, Beauty Writer, and Tutorial Expert"
Skeyndor Australia,http://www.skeyndoraustralia.com.au,,Cosmetics,11-50 employees,"Malvern, Victoria",Privately Held,1966,"68 Milton Parade, Malvern, Victoria 3144, AU",-37.849412,145.040889, 
YORA Skin Science,http://yora.com,,Cosmetics,2-10 employees,"Cremorne, Victoria",Privately Held,2018,"Cremorne, Victoria 3121, AU",-37.822907,145.004046, 
Juren Beauty,http://www.jurenbeauty.com.au,,Cosmetics,2-10 employees,"Sydney, NSW",Sole Proprietorship,2006,"4 Parkes Street, Manly Vake, Sydney, NSW 2093, AU",-33.812592,151.296542,"Waxing, Tiniting, Facials, Massage, Spray Tanning, Shellac, Manicures, Pedicures, and Bio Gel Nails"
Tres She,http://www.tresshe.com,,Cosmetics,2-10 employees,"Prahran, Victoria",Privately Held,2017, ,-33.925463,151.074596, 
Hollywood Nails,http://hollywoodnails.com.au,,Cosmetics, ,"Wantirna South, Victoria",,, , , , 
Eva Natural Group,https://evanatural.com.au/,,Cosmetics,51-200 employees,"Sydney, NSW",Privately Held,2010,"323, George St , Sydney, NSW 2000, AU",-33.866515,151.206922,"Beauty, Skin Care, Anti-Ageing, Cosmetics, Makeup, Retail , Sales, Distributors, Manufacturers, Luxury , Exclusive, Organic Products, Innovation, Chemical Free, Body Care, Facial Treatments, Online Store, Skin Analysist, Microdermabrasion, and oxygen therapy"
YVEARAY,http://www.yvevara.com,+61(02)78039258,Cosmetics,2-10 employees,"Rosebery, New South Wales",Privately Held,,"Rosebery, New South Wales 2018, AU",-33.926459,151.209055,"cosmetic formulation, luxury beauty, product development, skincare specialists, and health and wellbeing"
Wendy Christina Premium Skincare,http://www.wendychristina.com,421762173,Cosmetics,2-10 employees,"Dicky Beach, Queensland",Privately Held,2015, ,-30.642066,153.003726, 
Byron Bay Bronze,http://byronbaybronze.com,02 5624 5033,Cosmetics,2-10 employees,"Byron Bay, NSW",Privately Held,2018,"4/74 Centennial Circuit, Byron Bay, NSW 2481, AU",-28.637206,153.578134,"Fake tan, Clean beauty, Self Tanning Products, Professional Tanning Products, Self Tanning Foam, Luxury Face Tan Water, Pro Strength Tan Remover, Professional Spray Tanning Mist, Spray Tanning Machine, Luxury Tanning Mitt, and Sisal & Bamboo Exfoliating Mitt"
Eyelash Beauty, ,,Cosmetics, ,"Mermaid Beach, Queensland",,, ,-37.889218,145.057941, 
Aesthetic Solutions,http://aesthetic-solutions.com.au,,Cosmetics, ,,,, ,-28.010589,153.405688, 
NEON & CO.,http://us.neoncoproducts.com,,Cosmetics,2-10 employees,"Mlebourne, VIC",Sole Proprietorship,2013,"Mlebourne, VIC 3141, AU",-37.014348,143.480452, 
Cosmedi Me,http://www.cosmedime.com.au,0491 233 193,Cosmetics,2-10 employees,"Sydney, nsw",Privately Held,2019,"Sydney, nsw  AU",-33.868633,151.209421, 
Elleebana School of Beauty Therapy,http://elleebana.com.au,,Cosmetics, ,"Phillip, Australian Capital Territory",,, ,-27.122947,116.392594, 
SGD Body & Beauty,http://www.sgdbeauty.com,,Cosmetics,0-1 employees,"North Melbourne, VIC",Sole Proprietorship,2008,"North Melbourne, VIC 3051, AU",-37.798566,144.945165,"skincare, Cosmetics, yoga, barre, barre attack, makeup, spray tanning, massage, makeup artist, bridal makeup, wedding makeup, facials, and massage"
Duval,http://salonduval.com,,Cosmetics, ,"Northcote, Victoria",,, ,-30.498504,151.641862, 
SCOUT Organic Active Beauty,http://scoutactivebeauty.com,02 9344 8557,Cosmetics,2-10 employees,"Paddington, NSW",Privately Held,2014,"PO Box 285, Paddington, NSW 2021, AU",-33.893062,151.228202, 
The Skincare Company,http://theskincarecompany.com.au,0450 772 935,Cosmetics,2-10 employees,"South Geelong, Victoria",Privately Held,2009,"24-28 Raptor Pl, Lot 1, South Geelong, Victoria 3220, AU",-38.159477,144.356048, 
Pellekare,http://www.pellekare.com,61460704995,Cosmetics,2-10 employees,"Melbourne, Victoria",Partnership,2020,"Melbourne, Victoria 3145, AU",-37.825071,144.978682,"Skincare, Organic, Non-toxic, Gender neutral, small business, and Australian sourced"
Lulu and Lipstick, ,,Cosmetics,2-10 employees,,Privately Held,2014,"Brisbane,   AU",-27.469309,153.026164,Cosmetics and Online Shopping
ellé derm,http://elledermaustralia.com,1300 988 536,Cosmetics,2-10 employees,"Brisbane, Australia",Privately Held,2019,"Brisbane, Australia  AU",-27.469309,153.026164, 
Laviol Skincare Solution,http://www.laviol.com.au,+61 2 91146123,Cosmetics,2-10 employees,"North Rocks, New South Wales",Privately Held,2014,"Unit 34, 14 Loyalty Road, North Rocks, New South Wales 2151, AU",-33.775639,151.010524, 
Epilab,http://www.epilab.com.au,,Cosmetics,2-10 employees,"Moorabbin, Victoria",Partnership,2011,"94-102 Keys Rd, Factory 35, Moorabbin, Victoria 3189, AU",-37.941542,145.057782, 
Tripak Pharmaceuticals,http://tripak.com.au,,Cosmetics, ,"Capalaba, Queensland",,, , , , 
CHEV HAIR,http://chevhair.com.au,,Cosmetics, ,,,, ,-33.887599,151.271564, 
Skin Nutrient™,https://skinnutrient.com.au/,732166880,Cosmetics,11-50 employees,"Brisbane, Queensland",Privately Held,2013,"17 Iris Pl, Brisbane, Queensland 4110, AU",-27.469309,153.026164,"Skincare, Natural Skincare, Australian Made, Face Masks, Goat Milk Moisturiser, and Skin Nutrition"
Smart Skin Clinics,http://www.ssclinics.com.au,,Cosmetics,11-50 employees,"Melbourne, Victoria",Privately Held,2010,"8 Everage Street, Melbourne, Victoria 3039, AU",-37.825071,144.978682,"Medical Grade Laser Hair Removal, Cosmetic Tattoo, Teeth Whitening, and Skin Treatments"
Linda Meredith APAC,https://www.lindameredith.com.au/,,Cosmetics, ,"Sydney, NSW",Privately Held,,"1 Buckingham St, Surry Hills , Sydney, NSW 2010, AU",-33.886193,151.207464, 
Unclogd,http://www.unclogd.com.au,,Cosmetics,2-10 employees,,Privately Held,2020,"Melbourne,   AU",-37.825071,144.978682, 
Hemp Worx,http://www.hempworx.com.au,+61 3 9898 0018,Cosmetics,2-10 employees,"Melbourne, Victoria",Privately Held,2011,"Indra Rd, Melbourne, Victoria 3130, AU",-37.825071,144.978682, 
FILLMED Australia,http://www.fillmed.com.au,1300 346 448,Cosmetics,201-500 employees,"Sydney, NSW",Privately Held,1978,"Sydney, NSW 2000, AU",-33.901541,151.198098, 
Beyond Skin Beauty ,https://bsbpacific.com/,,Cosmetics,11-50 employees,"Campbellfield, Victoria",Privately Held,2000,"15 Production Dr, Campbellfield, Victoria 3061, AU",-37.664809,144.969704, 
Long Haul Spa,http://www.longhaulspa.com,+61 498 961 376,Cosmetics,2-10 employees,"Brisbane, Queensland",Privately Held,,"Brisbane, Queensland 4000, AU",-27.469309,153.026164,skincare and travel
Wakeup Your Makeup,http://www.wakeupyourmakeup.com/,,Cosmetics,2-10 employees,,Privately Held,,AU, , , 
Culte Skincare,http://www.culteskincare.com.au,,Cosmetics,2-10 employees,"Williams Landing, Victoria",Privately Held,,"Williams Landing, Victoria 3027, AU",-37.861891,144.743714, 
Flow Hair Design,http://flowhairdesign.com.au,(03) 8753 5833,Cosmetics,2-10 employees,,Sole Proprietorship,2019,"6 Station St, Seaford,  3198, AU",-38.103617,145.126243,"Hair Cut, Hair colour, Stylist, Hair Treatment, and Boutique Salon"
MUD & MUSK,http://www.mudandmusk.com,,Cosmetics,2-10 employees,"Perth, Western Australia",Privately Held,2016,"25 Gladstone St, Perth, Western Australia 6000, AU",-31.947394,115.871628, 
DERMALIST,http://www.dermalist.com,,Cosmetics,11-50 employees,"Melbourne, Victoria",Privately Held,2019,"Level 22, 120 Spencer Street, Melbourne, Victoria 3000, AU",-37.825071,144.978682, 
Cedar + Stone,https://www.cedarandstone.com.au/,,Cosmetics,2-10 employees,"Burleigh, QLD",Partnership,,"Township Drive, 4/90, Burleigh, QLD 4220, AU",-28.111013,153.436552,"Skin care, Cosmetics, Natural Beauty, and Natural skin care"
TERRE A MER,https://www.terreamer.com.au/,,Cosmetics,11-50 employees,"Melbourne, Victoria",Privately Held,2012,"11-19 Bank House, Bank Place, Melbourne, Victoria 3126, AU",-37.825071,144.978682,"Natural hair therapies, Hair products, Keratin straightening, Australian products, Hair dressing, and Hair spa"
Brisbane Hair and Beauty Expo,http://www.brisbanehairandbeautyexpo.com.au,,Cosmetics,2-10 employees,"Brisbane, QLD",Privately Held,2015,"Brisbane Convention & Exhibition Centre, Brisbane, QLD 4101, AU",-27.469309,153.026164,"Beauty, Education, Hair, Networking, and Skincare"
UAS Pharmaceuticals,http://uaspharma.com,,Cosmetics, ,"Castle Hill, New South Wales",,, , , , 
Media Makeup,http://mediamakeup.com.au,,Cosmetics, ,"Adelaide, South Australia",,, ,-28.072397,153.442187, 
MAIN CAMP NATURAL EXTRACTS PTY LTD,http://mcne.com.au,,Cosmetics,11-50 employees,"Rappville, New South Wales",Privately Held,,"840 Main Camp Rd, Rappville, New South Wales 2469, AU",-29.08333,152.95, 
Ella Baché Charlestown,http://charlestown.ellabache.com.au,,Cosmetics,2-10 employees,"Charlestown, New South Wales",Partnership,2012,"Charlestown Square, Level 2 (near Myer), Charlestown, New South Wales 2290, AU",-32.965386,151.693873,"Skin Care, Microdermabrasion, Laser Hair removal, Waxing, Facials, Skin Care, tinting, Spray Tanning, Manicure, and Pedicure"
Tanzee,https://tanzee.com.au/,,Cosmetics,11-50 employees,"Footscray, Victoria",Privately Held,2015,"127 Paisley St, Footscray, Victoria 3011, AU",-37.80032,144.893429, 
GlowDry Australia,https://glowdryaustralia.com.au/,,Cosmetics,0-1 employees,,Sole Proprietorship,,"Perth,   AU",-31.960773,115.834088, 
switchfunky,http://www.switchfunky.com,,Cosmetics,11-50 employees,"Burleigh Heads, Qld",Privately Held,2007,"Unit 5 & 6, 19 Township Drive, Burleigh Heads, Qld 4220, AU",-38.089794,145.161934,"Nail and Beauty Brand Development in Australasia, Marketing of Professional Nail and Beauty Products, Warehousing and Products distribution in the professional beauty channel, and Advanced Nail and Beauty Education Systems development and support in Australasia"
SmilePro Worldwide,https://www.smileproworldwide.com/products/advanced-whitening-kit,,Cosmetics,11-50 employees,"Mooloolaba, Queensland",Privately Held,,"Brisbane Rd, Mooloolaba, Queensland 4557, AU",-26.684217,153.113603, 
Realize Beauty Pty Ltd,http://www.realizebeauty.com,,Cosmetics,2-10 employees,"Blue Mountains, NSW",Privately Held,2008,"Blue Mountains, Blue Mountains, NSW  AU",-33.685687,150.407402,"Cosmetic Brand Development, Thought Leadership, Cosmetic Formulating, Technical Writing, Chemist-on-call trouble shooting, and Blogging"
Pure Jali,http://www.purejali.com.au,(+61) 0478 825 254,Cosmetics,0-1 employees,"Brisbane, Queensland",Privately Held,2012,"Brisbane, Queensland 4034, AU",-27.469309,153.026164,"cosmetics, vegan, cruelty-free, sensitive skin, dermatitis, psoriasis, eczema, acne, skin care, hair care, body lotion, hand cream, shampoo, conditioner, and body wash"
GoBlondie Cosmetics,https://goblondie.com/,,Cosmetics,11-50 employees,"Tweed Heads, New South Wales",Public Company,2016,"Wharf St, Tweed Heads, New South Wales 2485, AU",-28.181508,153.529624,"Foundation, Eye Liner, Lipsticks, and Mascara"
Arbré Beauty Programs,http://www.arbre.com.au,,Cosmetics,11-50 employees,"Thornton, Hunter Valley, NSW",Privately Held,1976,"82 Glenwood drive, Thornton, Hunter Valley, NSW 2322, AU",-32.494981,146.586903,"Skin care, Professional skin care treatments, Spa, Men's Skin care, Beauty, Manufacturing skin care products, Self Tanner, Personal Care, Consumer Products, and Education & Training"
Rina Hepworth- Professional Hair and Makeup Artist,http://www.rinahepworth.com,,Cosmetics,2-10 employees,,Sole Proprietorship,,"4218, AU",-28.039586,153.421692, 
BURLY,http://www.burly.online,,Cosmetics,2-10 employees,,Public Company,2015,"Melbourne ,   AU",-37.825071,144.978682, 
Violet Box,http://www.violetbox.com.au,,Cosmetics,2-10 employees,"South Yarra, Victora",Privately Held,2012,"29 Claremont St, South Yarra, Victora 3141, AU",-37.837099,144.9938,"beauty products, beauty tools, and remarketing services for beauty/cosmetic companies"
Xara Skin Clinic,https://xaraskinclinic.com.au,,Cosmetics,2-10 employees,"Lane Cove, New South Wales",Privately Held,2010,"2/85 Longueville Rd, Lane Cove, New South Wales 2066, AU",-33.813507,151.169818,"Non surgical fat removal, Facials, Non surgicalface lifts, and IPL and Laser skin care"
LAMAV,https://lamav.com/,+61 413 427 748,Cosmetics,201-500 employees,,Privately Held,2007,"La Mav Pty Ltd Suite 5/22 Hudson Ave, Castle Hill, NSW, Australia, Hudson Ave, Castle Hill  2154, AU",-33.72647,150.975226, 
Health Focus Manufacturers,http://healthfocusmanufacturers.com.au,,Cosmetics, ,,,, ,-37.809965,144.899249, 
Your Natural Products - Contract Manufacturers,http://www.yournaturalproducts.com.au,,Cosmetics,2-10 employees,"Sydney/Brisbane, NSW & QLD",Privately Held,2015,"Sydney/Brisbane, NSW & QLD  AU",-32.494981,146.586903,"skin care, body care, hair care, contract manufacturing, natural, australian, formulation, export, branding, marketing, website design, business consulting, product strategy, innovation, and start-ups"
Audrey Twins Beauty ,http://www.twinninginmakeup.com.au,,Cosmetics,2-10 employees,,Public Company,2012,"3000 Melbourne, Melbourne,   AU",-37.813937,144.961602,"Personal Styling, Fashion Styling, Makeup Artistry, and Hair Styling"
Solibar - Solid Haircare Bars,http://www.solibar.co,,Cosmetics,0-1 employees,"Melbourne, Victoria",Privately Held,2018,"Melbourne, Victoria 3000, AU",-37.813046,144.962398,"haircare, hair, shampoo, shampoo bars, solid haircare, natural ingredients, and vegan"
OrganiQ Kangaroo Island,http://organiqaustralia.com.au,,Cosmetics,2-10 employees,"Penneshaw, South Australia",Privately Held,2016,"South Terrace, Penneshaw, South Australia 5222, AU",-35.727558,137.940112, 
Ali Hamylton Cosmetics,http://alihamylton.com.au/,,Cosmetics,11-50 employees,"Tugun, QLD",Public Company,1991,"P. O. Box 225, Tugun, QLD 4224, AU",-28.148199,153.491084,"Cosmetics, Makeup Products, red lipstick, dual foundation, dual foundation refills, easy eye makeup, Makeup artist brushes, and blushes"
Blondies,http://blondieshair.com.au,,Cosmetics, ,,,, , , , 
Vanessa Ivy,http://www.vanessaivy.com,03 9021 0030,Cosmetics,2-10 employees,,Privately Held,2019,"Melbourne,   AU",-37.825071,144.978682,"Nail Polish, Cosmetics, Beauty, Gifts, Vegan, Cruelty-Free, Australian Made, Clean Beauty, Safe Cosmetics, Makeup, Nail Varnish, and Nail Lacquer"
Lemongrass House Australia,http://www.lemongrasshouse.com.au,,Cosmetics,2-10 employees,"Smithfield, QLD",Public Company,2014, ,-33.080363,115.894744,"Cosmetics, Natural products, Beauty products, Essential Oils, Massage Oils, and Fresh Hand Made Spa Products"
PureSmile Teeth Whitening,http://www.puresmile.com.au,1300 858 199,Cosmetics,11-50 employees,"Ultimo, New South Wales",Privately Held,2014,"Sydney, Ultimo, New South Wales 2007, AU",-33.880253,151.197953,"Cosmetic teeth whitening, Teeth whitening products, and Dental teeth whitening supplier"
Bronzalicious Tan|Skin|Body,http://www.bronzalicious.com.au,,Cosmetics,11-50 employees,"Neutral Bay, NSW",Sole Proprietorship,2003,"Shop 4 / 196 Military Rd, Rear of Building, Neutral Bay, NSW 2089, AU",-33.834865,151.217798,"Tanning, Facial Therapy, Mani and Pedi, Body Therapy, and Waxing"
Gloria Gangi - Makeup Artist,http://www.gloriagangi.com.au,,Cosmetics,0-1 employees,"Sydney, NSw",Self-Employed,2014,"Concord, Sydney, NSw 2137, AU",-33.868633,151.209421,"Special Occasion Makeup, Corporate Makeup, Bridal Makeup, and Race Day Makeup"
Empassion Natural,http://www.empassion.com.au,,Cosmetics,11-50 employees,"Tweed Heads Sth, NSW",Privately Held,2015, , , , 
Sydney Cosmetic & Plastic Surgery Clinic,http://www.sydneycosmeticclinic.com.au,02 9267 3322,Cosmetics,2-10 employees,"Sydney, NSW",Sole Proprietorship,1985,"Level 8, 60 Park St, Sydney, NSW 2000, AU",-33.873056,151.209698,"cosmetic surgery, Face and neck lifts, non-surgical cosmetic treatments, Anti-wrinkle injections, rhinoplasty, laser eyelid surgery, acne, and dermal filler"
Boodjera - Native Australian Skincare ,https://www.boodjera.com.au,,Cosmetics,2-10 employees,"Perth, Western Australia",Privately Held,2017,"West St, Perth, Western Australia 6005, AU",-31.960773,115.834088, 
Nhbs,http://nhbs.com.au,,Cosmetics, ,,,, , , , 
nude beauty products Australia,https://nudebeautyproducts.com.au/,,Cosmetics,2-10 employees,"Perth, Western Australia",Privately Held,2019,"108 St Georges Terrace, Level 25, Perth, Western Australia 6000, AU",-31.954446,115.857061, 
Fijivirginoil.com,http://www.fijivirginoil.com,,Cosmetics,2-10 employees,"Sydney, NSW",Public Company,2014,"Princes Hwy, Sydney, NSW 2044, AU",-33.868633,151.209421,"Cold Pressed Virgin Coconut Oil, Skin, Hair & Food Products, Wholesale & Retail Virgin Oil, and Organic Products"
BODI - Botanical Oleohydrating Dermaceutical Infusions, ,,Cosmetics,0-1 employees,,Sole Proprietorship,2013,"Brisbane,   AU",-27.469309,153.026164, 
laserbysia,http://www.laserhairremovalbysia.com.au,,Cosmetics,11-50 employees,"Bondi Junction, NSW",Privately Held,2005,"306/3 Waverley Street, Bondi Junction, NSW 2022, AU",-33.892831,151.251491,"Bikini Hair Removal, Brazilian Hair Removal, Women’s Facial Hair Removal, Women’s Body Hair Removal, Men’s Laser Hair Removal, Annoying Facial Hair Removal, Unwanted Body Hair Removal, and Ingrown Hair Removal"
Coco Skin Laser Health,http://www.cocoskinlaserhealth.com.au,,Cosmetics,11-50 employees,"Newcastle, NSW",Privately Held,2012,"175 Scott Street, Newcastle, NSW 2300, AU",-32.926504,151.7807,"Cosmetic Medicine, Anti-Wrinkle Injection, Tattoo Removal, ACNE Treatment, BBL Therapy, Skin Resurfacing, Cosmetic Tattooing, Hair Removal, Pigmentation, Scarring, Enzyme Reactivation, Micropen, Hyfrecation, Dermal Filler, Vascular Laser, and Circumference Reduction"
His Grooming WA ,http://www.hisgroomingwa.com.au,450616092,Cosmetics,2-10 employees,"Ardross, Western Australia",Sole Proprietorship,2010,"130b Riseley St, Ardross, Western Australia 6153, AU",-32.032346,115.838575, 
Hair and Skin Science,http://www.hairandskinscience.com.au,61472647011,Cosmetics,11-50 employees,"Sydney, NSW",Privately Held,2017, ,-27.41513,153.050372,"PRP hair regrowth treatment, PRP skin treatment, Copper Peptide for hair loss, Injectables, Thread Lift, and Skin Care"
Pureskin Australia,http://www.pureskin.net.au,,Cosmetics,11-50 employees,"Clontarf, QLD",Privately Held,2013,"PO Box 310, Clontarf, QLD 4019, AU",-27.258441,153.08689,"Beauty Therapy, Skin Treatment, Skin Management, Acne Treatment, Acne Management, Skin Diagnosis, Psoriasis and Excema treatment, Psoriasis and Excema Management, Young and Mature Skin, Sulfate free products, and Natural Active Ingredients"
People4Ocean® Sun Care,http://www.people4ocean.com,61400809909,Cosmetics,2-10 employees,"Abbotsford , Victoria",Privately Held,2014,"34, church street, Abbotsford , Victoria 3067, AU",-37.809346,145.001056,"coral reef restoration, natural sun care, coral gardening, and reef management"
International Nail and Beauty Colleges of Australasia NSW Australia,http://www.thecollege.com.au,,Cosmetics,2-10 employees,,Educational Institution,,"2170, AU",-33.933314,150.918733, 
LASHES AUSTRALIA,https://lashesaustralia.com.au/,,Cosmetics,2-10 employees,"Essendon, Victoria",Privately Held,,"881 Mt Alexander Rd, Essendon, Victoria 3040, AU",-37.755258,144.917148, 
Inline Cosmetic Laboratories,http://incolabs.com.au,,Cosmetics, ,,,, , , , 
MesmerEyez,http://www.mesmereyez.com.au,,Cosmetics,2-10 employees,"Melbourne, Victoria",Privately Held,,"1701 / 572, St Kilda, Melbourne, Victoria 3004, AU",-37.847612,144.979237, 
Lashtique,http://lashtique.com.au,,Cosmetics, ,,,, ,-27.451553,153.061392, 
MagicNails And Beauty,http://cosmetictattooingperth.com.au/,,Cosmetics,2-10 employees,"East Victoria Park, Perth WA",Privately Held,2004,"857 Albany Hwy, East Victoria Park, Perth WA 6101, AU",-31.985278,115.903148,"Cosmetic tattooing, Facial treatments Microdermabrasion, Pedicures and manicures Spray tan, and Brazilian waxing"
Perth College of Beauty Therapy RTO Code: 0249,https://perthcollege.com.au/,893613111,Cosmetics,11-50 employees,"Victoria Park, Western Australia",Public Company,1987,"339 Albany Hwy, Victoria Park, Western Australia 6100, AU",-31.973526,115.896373, 
The Lip Lab Perth,http://www.thelipabperth.com.au,,Cosmetics,2-10 employees,"Perth, WA",Privately Held,2016,"Shop 3/777 Hay Street, Central Park Building, Perth, WA 6000, AU",-31.95464,115.860269, 
SalonShop,http://salonshoponline.com.au,,Cosmetics,11-50 employees,,Sole Proprietorship,,AU, , , 
Kelapa Organics,http://www.kelapa.com.au,,Cosmetics,2-10 employees,"Prahran East, Victoria",Privately Held,2014,"PO BOX 3262, Prahran East, Victoria 3181, AU",-37.854017,145.006818, 
Sunescape Tan,http://sunescape.com.au/,,Cosmetics,11-50 employees,"Sydney, NSW",Privately Held,, , , ,Self Tan and Spray Tan
Beaute Internationale,http://beauteinternationale.com.au,738565399,Cosmetics,11-50 employees,"Stafford, Queensland",Sole Proprietorship,,"12 Windorah St, Stafford, Queensland 4053, AU",-27.410554,153.011443, 
Skin Club - Cosmetic Doctors,http://www.skinclub.com.au,(03) 9999 7368,Cosmetics,2-10 employees,"Windsor, Victoria",Privately Held,2015,"150a Chapel St, Windsor, Victoria 3181, AU",-37.85302,144.993355, 
Grace Beauty Salon,http://gracebeautysalon.com.au,,Cosmetics, ,"Five Dock, New South Wales",,, ,-34.840231,138.492471, 
Lullaby Skincare,http://www.lullabyskincare.com,438762480,Cosmetics,2-10 employees,"Sydney, NSW",Privately Held,2017,"Sydney, NSW 2000, AU",-33.901541,151.198098, 
Platypus Dreams,http://www.platypusdreams.com.au,,Cosmetics,2-10 employees,,Sole Proprietorship,2005, ,-33.417799,151.277992,"manufacture, retail, wholesale, soap makers, cosmetics and toiletries, and gifts"
What Skin Needs™,http://whatskinneeds.com,,Cosmetics,11-50 employees,"Port Melbourne, Victoria",Privately Held,2015,"370 Bay Street, Port Melbourne, Victoria 3207, AU", , ,"Skincare, Beauty, Health, and Cosmetics"
Grace Cosmetics,http://gracecosmetics.com.au,,Cosmetics, ,,,, ,-33.102247,118.464337, 
UDi SKINCARE,https://www.udiskincare.com,,Cosmetics,2-10 employees,"Sydney, NSW",Partnership,2017,"14 Seaview Parade, Collaroy, Sydney, NSW 2107, AU",-33.737637,151.305363,"skin care, beauty, and healthy skin"
